{
  "updated_at": "2026-02-16T17:38:52.365761",
  "updated_display": "2026년 02월 16일 17:38",
  "districts": {
    "강남구": {
      "lat": 37.5172,
      "lng": 127.0473,
      "total": 200,
      "count": 200,
      "sale": 80,
      "lease": 56,
      "rent": 64,
      "articles": [
        {
          "id": "2608430082",
          "name": "레이어청담(도시형)",
          "complex": "부동산뱅크",
          "type": "아파트",
          "trade": "월세",
          "price": "1억",
          "deposit": 500,
          "area1": "74",
          "area2": "47.31",
          "floor": "6/17",
          "direction": "북향",
          "desc": "소유주직접 모든타입보유 보증금조율가능 보증보험가능호실",
          "lat": 37.524528,
          "lng": 127.047761,
          "link": "https://new.land.naver.com/houses/2608430082"
        },
        {
          "id": "2608430268",
          "name": "레이어청담(도시형)",
          "complex": "부동산뱅크",
          "type": "아파트",
          "trade": "전세",
          "price": "7억 5,000",
          "deposit": 0,
          "area1": "74",
          "area2": "47.31",
          "floor": "6/17",
          "direction": "북향",
          "desc": "소유주직접 모든타입보유 보증금조율가능 보증보험가능호실",
          "lat": 37.524528,
          "lng": 127.047761,
          "link": "https://new.land.naver.com/houses/2608430268"
        },
        {
          "id": "2607885731",
          "name": "원에디션강남(도시형)",
          "complex": "공실클럽",
          "type": "아파트",
          "trade": "월세",
          "price": "5,000",
          "deposit": 413,
          "area1": "56",
          "area2": "35.63",
          "floor": "7/13",
          "direction": "북향",
          "desc": "전세, 월세, 단기임대, 보증금 월세 협의 즉시입주 저렴한 매물 보유중",
          "lat": 37.507817,
          "lng": 127.037697,
          "link": "https://new.land.naver.com/houses/2607885731"
        },
        {
          "id": "2607139480",
          "name": "삼성벽산블루밍",
          "complex": "부동산포스",
          "type": "아파트",
          "trade": "전세",
          "price": "19억",
          "deposit": 0,
          "area1": "174",
          "area2": "157.02",
          "floor": "4/7",
          "direction": "남향",
          "desc": "실매물 실사진 올수리리모델링 첫입주 월세가능",
          "lat": 37.51736,
          "lng": 127.052186,
          "link": "https://new.land.naver.com/houses/2607139480"
        },
        {
          "id": "2608040904",
          "name": "루시아청담546더리버",
          "complex": "매경부동산",
          "type": "아파트",
          "trade": "전세",
          "price": "50억",
          "deposit": 0,
          "area1": "185",
          "area2": "136.95",
          "floor": "15/16",
          "direction": "북동향",
          "desc": "아파트 최고층, 하이엔드 프라이빗 주거, 프리미엄 한강뷰",
          "lat": 37.524558,
          "lng": 127.053505,
          "link": "https://new.land.naver.com/houses/2608040904"
        },
        {
          "id": "2607768070",
          "name": "레이어청담(도시형)",
          "complex": "부동산뱅크",
          "type": "아파트",
          "trade": "전세",
          "price": "6억",
          "deposit": 0,
          "area1": "62",
          "area2": "39.58",
          "floor": "6/17",
          "direction": "북향",
          "desc": "신추 첫입주, 현 내부영상, 1룸 1거실 단층",
          "lat": 37.524528,
          "lng": 127.047761,
          "link": "https://new.land.naver.com/houses/2607768070"
        },
        {
          "id": "2608073759",
          "name": "청담대우유로카운티",
          "complex": "부동산써브",
          "type": "아파트",
          "trade": "매매",
          "price": "29억 5,000",
          "deposit": 0,
          "area1": "142",
          "area2": "121.48",
          "floor": "1/16",
          "direction": "남동향",
          "desc": "43, 테라스하우스 급매 빠른연락주세요",
          "lat": 37.523563,
          "lng": 127.05041,
          "link": "https://new.land.naver.com/houses/2608073759"
        },
        {
          "id": "2607876462",
          "name": "레이어청담(도시형)",
          "complex": "부동산뱅크",
          "type": "아파트",
          "trade": "월세",
          "price": "5,000",
          "deposit": 350,
          "area1": "62",
          "area2": "39.58",
          "floor": "6/17",
          "direction": "북향",
          "desc": "전입가능 청담동 사거리 하이엔드 레이어청담",
          "lat": 37.524528,
          "lng": 127.047761,
          "link": "https://new.land.naver.com/houses/2607876462"
        },
        {
          "id": "2608018107",
          "name": "레이어청담(도시형)",
          "complex": "한경부동산",
          "type": "아파트",
          "trade": "전세",
          "price": "7억 7,000",
          "deposit": 0,
          "area1": "77",
          "area2": "49.99",
          "floor": "4/17",
          "direction": "북향",
          "desc": "주인직접 전입가능 첫입주 즉시입주 청담사거리코너 도산대로변",
          "lat": 37.524528,
          "lng": 127.047761,
          "link": "https://new.land.naver.com/houses/2608018107"
        },
        {
          "id": "2606932197",
          "name": "청담래미안로이뷰",
          "complex": "부동산포스",
          "type": "아파트",
          "trade": "매매",
          "price": "45억",
          "deposit": 0,
          "area1": "136",
          "area2": "110.2",
          "floor": "9/16",
          "direction": "북동향",
          "desc": "실매물 41평 소유주직접 실사진",
          "lat": 37.52452,
          "lng": 127.056236,
          "link": "https://new.land.naver.com/houses/2606932197"
        },
        {
          "id": "2608389807",
          "name": "펜트힐루논현(도시형)",
          "complex": "부동산뱅크",
          "type": "아파트",
          "trade": "월세",
          "price": "5,000",
          "deposit": 320,
          "area1": "63",
          "area2": "43.39",
          "floor": "중/17",
          "direction": "동향",
          "desc": "전입가능  호텔식 컨시어지 I 전입가능 I 자주식주차",
          "lat": 37.513907,
          "lng": 127.034975,
          "link": "https://new.land.naver.com/houses/2608389807"
        },
        {
          "id": "2606807431",
          "name": "레이어청담(도시형)",
          "complex": "한경부동산",
          "type": "아파트",
          "trade": "전세",
          "price": "6억 8,000",
          "deposit": 0,
          "area1": "64",
          "area2": "39.14",
          "floor": "5/17",
          "direction": "남향",
          "desc": "모든타입매물보유 금액조정가능 주인직접 풀옵션 하이엔드 신축 첫입주",
          "lat": 37.524528,
          "lng": 127.047761,
          "link": "https://new.land.naver.com/houses/2606807431"
        },
        {
          "id": "2606839726",
          "name": "레이어청담(도시형)",
          "complex": "부동산뱅크",
          "type": "아파트",
          "trade": "전세",
          "price": "6억 8,000",
          "deposit": 0,
          "area1": "79",
          "area2": "49.79",
          "floor": "4/17",
          "direction": "북향",
          "desc": "전입 대출 보증보험 가능  청담동 사거리 하이엔드 레이어청담",
          "lat": 37.524528,
          "lng": 127.047761,
          "link": "https://new.land.naver.com/houses/2606839726"
        },
        {
          "id": "2607878626",
          "name": "루시아청담546더리버",
          "complex": "부동산뱅크",
          "type": "아파트",
          "trade": "전세",
          "price": "55억",
          "deposit": 0,
          "area1": "185",
          "area2": "136.95",
          "floor": "중/16",
          "direction": "북동향",
          "desc": "전타입보유｜아름다운한강뷰 PH129맞은편",
          "lat": 37.524558,
          "lng": 127.053505,
          "link": "https://new.land.naver.com/houses/2607878626"
        },
        {
          "id": "2606504949",
          "name": "원에디션강남(도시형)",
          "complex": "부동산뱅크",
          "type": "아파트",
          "trade": "월세",
          "price": "5,000",
          "deposit": 350,
          "area1": "63",
          "area2": "40.95",
          "floor": "3/15",
          "direction": "북서향",
          "desc": "1.5룸.실매물 추천.렌트프리 있음.원에디션 최저가 실매물.하이엔드",
          "lat": 37.507991,
          "lng": 127.038438,
          "link": "https://new.land.naver.com/houses/2606504949"
        },
        {
          "id": "2606721594",
          "name": "레이어청담(도시형)",
          "complex": "부동산뱅크",
          "type": "아파트",
          "trade": "전세",
          "price": "6억",
          "deposit": 0,
          "area1": "58",
          "area2": "35.64",
          "floor": "6/17",
          "direction": "남향",
          "desc": "소유주직접 모든타입보유 전입가능 보증보험가능호실",
          "lat": 37.524528,
          "lng": 127.047761,
          "link": "https://new.land.naver.com/houses/2606721594"
        },
        {
          "id": "2606306765",
          "name": "레이어청담(도시형)",
          "complex": "한경부동산",
          "type": "아파트",
          "trade": "전세",
          "price": "7억",
          "deposit": 0,
          "area1": "62",
          "area2": "39.99",
          "floor": "3/17",
          "direction": "북향",
          "desc": "전입가능 테라스 주인직접 모든타입보유 분리형 신축 하이엔드 첫입주 ",
          "lat": 37.524528,
          "lng": 127.047761,
          "link": "https://new.land.naver.com/houses/2606306765"
        },
        {
          "id": "2605804070",
          "name": "아츠논현(도시형)",
          "complex": "부동산뱅크",
          "type": "아파트",
          "trade": "월세",
          "price": "1억",
          "deposit": 400,
          "area1": "49",
          "area2": "38.82",
          "floor": "20/20",
          "direction": "동향",
          "desc": "집주인의뢰 명품수입가전 화이트톤 인테리어 하이엔드 오피스텔",
          "lat": 37.512229,
          "lng": 127.036154,
          "link": "https://new.land.naver.com/houses/2605804070"
        },
        {
          "id": "2606932636",
          "name": "청담래미안로이뷰",
          "complex": "부동산포스",
          "type": "아파트",
          "trade": "전세",
          "price": "15억",
          "deposit": 0,
          "area1": "136",
          "area2": "110.2",
          "floor": "중/16",
          "direction": "북동향",
          "desc": "한강뷰 실매물 실사진 금액다운 소유주 소통 多",
          "lat": 37.52452,
          "lng": 127.056236,
          "link": "https://new.land.naver.com/houses/2606932636"
        },
        {
          "id": "2607135543",
          "name": "루시아청담546더리버",
          "complex": "매경부동산",
          "type": "아파트",
          "trade": "전세",
          "price": "55억",
          "deposit": 0,
          "area1": "185",
          "area2": "136.95",
          "floor": "중/16",
          "direction": "북동향",
          "desc": "럭키 한강조망 ,신축 첫 입주,고급아파트",
          "lat": 37.524558,
          "lng": 127.053505,
          "link": "https://new.land.naver.com/houses/2607135543"
        },
        {
          "id": "2606673343",
          "name": "루시아청담546더리버",
          "complex": "부동산뱅크",
          "type": "아파트",
          "trade": "전세",
          "price": "52억",
          "deposit": 0,
          "area1": "185",
          "area2": "136.95",
          "floor": "중/16",
          "direction": "북동향",
          "desc": "가치증명,모든 전세 가능 홋실 보유,맞춤제안",
          "lat": 37.524558,
          "lng": 127.053505,
          "link": "https://new.land.naver.com/houses/2606673343"
        },
        {
          "id": "2605723468",
          "name": "레이어청담(도시형)",
          "complex": "한경부동산",
          "type": "아파트",
          "trade": "전세",
          "price": "8억",
          "deposit": 0,
          "area1": "77",
          "area2": "47.81",
          "floor": "4/17",
          "direction": "남향",
          "desc": "첫입주 주인직접 반전세가능 가장넓은타입 남향 하이엔드 도산대로 청담사거리",
          "lat": 37.524528,
          "lng": 127.047761,
          "link": "https://new.land.naver.com/houses/2605723468"
        },
        {
          "id": "2605920090",
          "name": "원에디션강남(도시형)",
          "complex": "공실클럽",
          "type": "아파트",
          "trade": "월세",
          "price": "1억",
          "deposit": 300,
          "area1": "45",
          "area2": "29.26",
          "floor": "고/15",
          "direction": "동향",
          "desc": "고층뻥뷰OK귀한호실OK바로계약될집",
          "lat": 37.507991,
          "lng": 127.038438,
          "link": "https://new.land.naver.com/houses/2605920090"
        },
        {
          "id": "2605256934",
          "name": "레이어청담(도시형)",
          "complex": "공실클럽",
          "type": "아파트",
          "trade": "월세",
          "price": "5,000",
          "deposit": 450,
          "area1": "77",
          "area2": "49.99",
          "floor": "4/17",
          "direction": "북향",
          "desc": "청담동 1등 레이어청담 로얄 타입 골라서 들어가고 싶은 분",
          "lat": 37.524528,
          "lng": 127.047761,
          "link": "https://new.land.naver.com/houses/2605256934"
        },
        {
          "id": "2605359241",
          "name": "루시아청담546더리버",
          "complex": "부동산뱅크",
          "type": "아파트",
          "trade": "매매",
          "price": "83억",
          "deposit": 0,
          "area1": "185",
          "area2": "136.95",
          "floor": "15/16",
          "direction": "북동향",
          "desc": "56 한층한세대 프라이빗한 하이엔드아파트 신축 첫입주",
          "lat": 37.524558,
          "lng": 127.053505,
          "link": "https://new.land.naver.com/houses/2605359241"
        },
        {
          "id": "2605339078",
          "name": "루시아청담546더리버",
          "complex": "매경부동산",
          "type": "아파트",
          "trade": "매매",
          "price": "81억",
          "deposit": 0,
          "area1": "185",
          "area2": "136.95",
          "floor": "13/16",
          "direction": "북동향",
          "desc": "한강뷰 즉시입주 가능",
          "lat": 37.524558,
          "lng": 127.053505,
          "link": "https://new.land.naver.com/houses/2605339078"
        },
        {
          "id": "2605321580",
          "name": "루시아청담546더리버",
          "complex": "부동산뱅크",
          "type": "아파트",
          "trade": "매매",
          "price": "82억",
          "deposit": 0,
          "area1": "185",
          "area2": "136.95",
          "floor": "14/16",
          "direction": "북동향",
          "desc": "한강뷰 즉시입주 소유주 직접",
          "lat": 37.524558,
          "lng": 127.053505,
          "link": "https://new.land.naver.com/houses/2605321580"
        },
        {
          "id": "2604341098",
          "name": "원에디션강남(도시형)",
          "complex": "부동산뱅크",
          "type": "아파트",
          "trade": "월세",
          "price": "5,000",
          "deposit": 395,
          "area1": "56",
          "area2": "35.63",
          "floor": "9/13",
          "direction": "북향",
          "desc": "렌트프리 첫입주",
          "lat": 37.507817,
          "lng": 127.037697,
          "link": "https://new.land.naver.com/houses/2604341098"
        },
        {
          "id": "2605378546",
          "name": "원에디션강남(도시형)",
          "complex": "매경부동산",
          "type": "아파트",
          "trade": "전세",
          "price": "9억 5,000",
          "deposit": 0,
          "area1": "71",
          "area2": "46.32",
          "floor": "저/13",
          "direction": "남향",
          "desc": "인기타입 반듯한구조 자주식주차 호텔식컨시어지",
          "lat": 37.507817,
          "lng": 127.037697,
          "link": "https://new.land.naver.com/houses/2605378546"
        },
        {
          "id": "2605680188",
          "name": "레이어청담(도시형)",
          "complex": "한경부동산",
          "type": "아파트",
          "trade": "월세",
          "price": "3억",
          "deposit": 250,
          "area1": "77",
          "area2": "47.81",
          "floor": "저/17",
          "direction": "남향",
          "desc": "주인직접 모든타입보유 전입가능 금액조정가능 첫입주 하이엔드 ",
          "lat": 37.524528,
          "lng": 127.047761,
          "link": "https://new.land.naver.com/houses/2605680188"
        },
        {
          "id": "2603992282",
          "name": "원에디션강남(도시형)",
          "complex": "부동산뱅크",
          "type": "아파트",
          "trade": "월세",
          "price": "5,000",
          "deposit": 413,
          "area1": "58",
          "area2": "37.23",
          "floor": "13/13",
          "direction": "남향",
          "desc": "희소타입 남향",
          "lat": 37.507817,
          "lng": 127.037697,
          "link": "https://new.land.naver.com/houses/2603992282"
        },
        {
          "id": "2605271669",
          "name": "삼성센트럴아이파크",
          "complex": "매경부동산",
          "type": "아파트",
          "trade": "매매",
          "price": "42억",
          "deposit": 0,
          "area1": "113",
          "area2": "84.98",
          "floor": "저/31",
          "direction": "남향",
          "desc": "34매매 세대간섭X 구조 내부상태 우수",
          "lat": 37.515172,
          "lng": 127.051461,
          "link": "https://new.land.naver.com/houses/2605271669"
        },
        {
          "id": "2604605109",
          "name": "원에디션강남(도시형)",
          "complex": "공실클럽",
          "type": "아파트",
          "trade": "전세",
          "price": "11억",
          "deposit": 0,
          "area1": "75",
          "area2": "49.46",
          "floor": "저/13",
          "direction": "서향",
          "desc": "보증금 협의, 전세, 월세, 매매, 즉시입주 저렴한 매물 보유중",
          "lat": 37.507817,
          "lng": 127.037697,
          "link": "https://new.land.naver.com/houses/2604605109"
        },
        {
          "id": "2605057675",
          "name": "펜트힐캐스케이드(도시형)",
          "complex": "부동산뱅크",
          "type": "아파트",
          "trade": "월세",
          "price": "5,000",
          "deposit": 325,
          "area1": "63",
          "area2": "43.01",
          "floor": "저/18",
          "direction": "서향",
          "desc": "",
          "lat": 37.518184,
          "lng": 127.035676,
          "link": "https://new.land.naver.com/houses/2605057675"
        },
        {
          "id": "2603140772",
          "name": "레이어청담(도시형)",
          "complex": "한경부동산",
          "type": "아파트",
          "trade": "전세",
          "price": "6억 8,000",
          "deposit": 0,
          "area1": "75",
          "area2": "47.85",
          "floor": "6/17",
          "direction": "북향",
          "desc": "모든타입보유 주인직접 전입가능 청담사거리코너 복층형 분리형 하이엔드첫입주",
          "lat": 37.524528,
          "lng": 127.047761,
          "link": "https://new.land.naver.com/houses/2603140772"
        },
        {
          "id": "2604297298",
          "name": "삼성힐스테이트2단지",
          "complex": "부동산뱅크",
          "type": "아파트",
          "trade": "월세",
          "price": "5억 5,000",
          "deposit": 300,
          "area1": "109",
          "area2": "84.34",
          "floor": "고/14",
          "direction": "남향",
          "desc": "로얄층,남향,내부깔끔하고 좋아요 즉시입주가능협의가능",
          "lat": 37.513101,
          "lng": 127.051436,
          "link": "https://new.land.naver.com/houses/2604297298"
        },
        {
          "id": "2604393825",
          "name": "펜트힐캐스케이드(도시형)",
          "complex": "부동산뱅크",
          "type": "아파트",
          "trade": "월세",
          "price": "5,000",
          "deposit": 430,
          "area1": "71",
          "area2": "48.03",
          "floor": "저/18",
          "direction": "동향",
          "desc": "즉시입주 하이엔드 I 전입가능 I 자주식주차",
          "lat": 37.518184,
          "lng": 127.035676,
          "link": "https://new.land.naver.com/houses/2604393825"
        },
        {
          "id": "2603692876",
          "name": "논현동양파라곤",
          "complex": "공실클럽",
          "type": "아파트",
          "trade": "월세",
          "price": "5억",
          "deposit": 1000,
          "area1": "218",
          "area2": "180.07",
          "floor": "저/16",
          "direction": "남향",
          "desc": "주인분매물 인테리어 있음 즉시입주",
          "lat": 37.515158,
          "lng": 127.038368,
          "link": "https://new.land.naver.com/houses/2603692876"
        },
        {
          "id": "2603621014",
          "name": "원에디션강남(도시형)",
          "complex": "부동산뱅크",
          "type": "아파트",
          "trade": "월세",
          "price": "5,000",
          "deposit": 275,
          "area1": "47",
          "area2": "30.34",
          "floor": "고/15",
          "direction": "서향",
          "desc": "빠른입주 전호실보유 동향",
          "lat": 37.507991,
          "lng": 127.038438,
          "link": "https://new.land.naver.com/houses/2603621014"
        },
        {
          "id": "2603382281",
          "name": "루시아청담546더리버",
          "complex": "매경부동산",
          "type": "아파트",
          "trade": "전세",
          "price": "50억",
          "deposit": 0,
          "area1": "185",
          "area2": "136.95",
          "floor": "저/16",
          "direction": "북동향",
          "desc": "소유주 직접 루시아더리버청담 빠른 입주",
          "lat": 37.524558,
          "lng": 127.053505,
          "link": "https://new.land.naver.com/houses/2603382281"
        },
        {
          "id": "2608985935",
          "name": "청담린든그로브",
          "complex": "이실장플러스",
          "type": "아파트",
          "trade": "매매",
          "price": "57억",
          "deposit": 0,
          "area1": "239",
          "area2": "203.87",
          "floor": "2/7",
          "direction": "남서향",
          "desc": "숲세권 , 가격 좋은 대형평형 매매",
          "lat": 37.522497,
          "lng": 127.053354,
          "link": "https://new.land.naver.com/houses/2608985935"
        },
        {
          "id": "2608984049",
          "name": "삼성힐스테이트2단지",
          "complex": "이실장플러스",
          "type": "아파트",
          "trade": "월세",
          "price": "8억",
          "deposit": 160,
          "area1": "109",
          "area2": "84.23",
          "floor": "7/21",
          "direction": "남향",
          "desc": "9호선인접  올확장형 , 채광 넘 좋은집 내부상태 굿",
          "lat": 37.513756,
          "lng": 127.051055,
          "link": "https://new.land.naver.com/houses/2608984049"
        },
        {
          "id": "2608985943",
          "name": "청담동양파라곤",
          "complex": "이실장플러스",
          "type": "아파트",
          "trade": "매매",
          "price": "85억",
          "deposit": 0,
          "area1": "287",
          "area2": "244.97",
          "floor": "5/12",
          "direction": "남서향",
          "desc": "대가족 추천 세대 , 조용한 주거환경 , 공원 인접",
          "lat": 37.52146,
          "lng": 127.054442,
          "link": "https://new.land.naver.com/houses/2608985943"
        },
        {
          "id": "2608985734",
          "name": "우정에쉐르",
          "complex": "매경부동산",
          "type": "아파트",
          "trade": "매매",
          "price": "28억",
          "deposit": 0,
          "area1": "151",
          "area2": "131.05",
          "floor": "4/10",
          "direction": "남향",
          "desc": "46, 급매,정남향,확장,인테리어 좋아요,풍수학으로우수한세대",
          "lat": 37.517188,
          "lng": 127.044213,
          "link": "https://new.land.naver.com/houses/2608985734"
        },
        {
          "id": "2608985944",
          "name": "청담동양파라곤",
          "complex": "이실장플러스",
          "type": "아파트",
          "trade": "매매",
          "price": "90억",
          "deposit": 0,
          "area1": "287",
          "area2": "244.97",
          "floor": "1/12",
          "direction": "남향",
          "desc": "구조 활용도 높은 세대, 녹지 조망",
          "lat": 37.52146,
          "lng": 127.054442,
          "link": "https://new.land.naver.com/houses/2608985944"
        },
        {
          "id": "2608984701",
          "name": "청담동양파라곤",
          "complex": "매경부동산",
          "type": "아파트",
          "trade": "전세",
          "price": "50억",
          "deposit": 0,
          "area1": "287",
          "area2": "244.97",
          "floor": "1/12",
          "direction": "남향",
          "desc": "구조 활용도 높은 세대, 녹지 조망 , 월세 가능",
          "lat": 37.52146,
          "lng": 127.054442,
          "link": "https://new.land.naver.com/houses/2608984701"
        },
        {
          "id": "2608988253",
          "name": "삼성힐스테이트1단지",
          "complex": "매경부동산",
          "type": "아파트",
          "trade": "전세",
          "price": "13억",
          "deposit": 0,
          "area1": "109",
          "area2": "84.41",
          "floor": "18/23",
          "direction": "동향",
          "desc": "33최고입지 로얄층 입주협의",
          "lat": 37.516439,
          "lng": 127.047424,
          "link": "https://new.land.naver.com/houses/2608988253"
        },
        {
          "id": "2608984699",
          "name": "청담동양파라곤",
          "complex": "매경부동산",
          "type": "아파트",
          "trade": "전세",
          "price": "35억",
          "deposit": 0,
          "area1": "290",
          "area2": "244.92",
          "floor": "9/12",
          "direction": "남향",
          "desc": "대형 평형 , 숲세권 , 고급아파트",
          "lat": 37.522055,
          "lng": 127.054502,
          "link": "https://new.land.naver.com/houses/2608984699"
        },
        {
          "id": "2608985007",
          "name": "청담린든그로브",
          "complex": "매경부동산",
          "type": "아파트",
          "trade": "월세",
          "price": "5,000",
          "deposit": 1000,
          "area1": "114",
          "area2": "84.99",
          "floor": "2/7",
          "direction": "남향",
          "desc": "귀한 소액보증금 , 깨끗하고 밝은 집",
          "lat": 37.52255,
          "lng": 127.053822,
          "link": "https://new.land.naver.com/houses/2608985007"
        },
        {
          "id": "2608985922",
          "name": "빌폴라리스",
          "complex": "이실장플러스",
          "type": "아파트",
          "trade": "매매",
          "price": "80억",
          "deposit": 0,
          "area1": "203",
          "area2": "166.01",
          "floor": "4/20",
          "direction": "남동향",
          "desc": "화이트톤 내부 올리모델링 세대, 입주일 협의 가능합니다.",
          "lat": 37.525509,
          "lng": 127.053746,
          "link": "https://new.land.naver.com/houses/2608985922"
        },
        {
          "id": "2608983237",
          "name": "삼성힐스테이트1단지",
          "complex": "매경부동산",
          "type": "아파트",
          "trade": "월세",
          "price": "3억",
          "deposit": 400,
          "area1": "109",
          "area2": "84.41",
          "floor": "12/23",
          "direction": "동향",
          "desc": "집주인직접로얄동올확장올마루입주협의가능",
          "lat": 37.516439,
          "lng": 127.047424,
          "link": "https://new.land.naver.com/houses/2608983237"
        },
        {
          "id": "2608984700",
          "name": "빌폴라리스",
          "complex": "매경부동산",
          "type": "아파트",
          "trade": "월세",
          "price": "15억",
          "deposit": 1800,
          "area1": "203",
          "area2": "166.01",
          "floor": "11/20",
          "direction": "남동향",
          "desc": "화이트톤 내부 올리모델링 세대, 입주일 협의 가능합니다.",
          "lat": 37.525509,
          "lng": 127.053746,
          "link": "https://new.land.naver.com/houses/2608984700"
        },
        {
          "id": "2608984600",
          "name": "삼성청담공원",
          "complex": "이실장플러스",
          "type": "아파트",
          "trade": "매매",
          "price": "30억",
          "deposit": 0,
          "area1": "132",
          "area2": "107.22",
          "floor": "5/15",
          "direction": "남서향",
          "desc": "시원하게 트인뷰 내부확장수리깨끗 중층뷰",
          "lat": 37.522143,
          "lng": 127.049956,
          "link": "https://new.land.naver.com/houses/2608984600"
        },
        {
          "id": "2608988255",
          "name": "삼성힐스테이트2단지",
          "complex": "매경부동산",
          "type": "아파트",
          "trade": "전세",
          "price": "13억",
          "deposit": 0,
          "area1": "109",
          "area2": "84.23",
          "floor": "12/21",
          "direction": "남향",
          "desc": "최고입지 초역세권 올수리 로얄층 코엑스인접 학군우수",
          "lat": 37.514348,
          "lng": 127.050765,
          "link": "https://new.land.naver.com/houses/2608988255"
        },
        {
          "id": "2608988275",
          "name": "삼성힐스테이트1단지",
          "complex": "매경부동산",
          "type": "아파트",
          "trade": "전세",
          "price": "13억 8,000",
          "deposit": 0,
          "area1": "143",
          "area2": "114.46",
          "floor": "20/23",
          "direction": "동향",
          "desc": "43 급전세  4월17일까지 잔금3월도 가능함 내부깨끗",
          "lat": 37.516536,
          "lng": 127.048282,
          "link": "https://new.land.naver.com/houses/2608988275"
        },
        {
          "id": "2608984707",
          "name": "삼성힐스테이트1단지",
          "complex": "매경부동산",
          "type": "아파트",
          "trade": "매매",
          "price": "37억",
          "deposit": 0,
          "area1": "109",
          "area2": "84.23",
          "floor": "11/23",
          "direction": "남향",
          "desc": "채광좋은 남향,확장형,언북초중학군,청담역더불역세권",
          "lat": 37.517054,
          "lng": 127.048864,
          "link": "https://new.land.naver.com/houses/2608984707"
        },
        {
          "id": "2608984708",
          "name": "삼성힐스테이트2단지",
          "complex": "매경부동산",
          "type": "아파트",
          "trade": "월세",
          "price": "7억",
          "deposit": 230,
          "area1": "109",
          "area2": "84.23",
          "floor": "5/21",
          "direction": "남향",
          "desc": "올확장형 33P 삼성중앙역 코 앞 ,코엑스 도보 가능함",
          "lat": 37.513756,
          "lng": 127.051055,
          "link": "https://new.land.naver.com/houses/2608984708"
        },
        {
          "id": "2608984690",
          "name": "빌폴라리스",
          "complex": "매경부동산",
          "type": "아파트",
          "trade": "전세",
          "price": "55억",
          "deposit": 0,
          "area1": "203",
          "area2": "166.01",
          "floor": "11/20",
          "direction": "남동향",
          "desc": "소유주 직접 , 보증금 조절 가능 세대",
          "lat": 37.525509,
          "lng": 127.053746,
          "link": "https://new.land.naver.com/houses/2608984690"
        },
        {
          "id": "2608987955",
          "name": "청담e-편한세상4차",
          "complex": "매경부동산",
          "type": "아파트",
          "trade": "매매",
          "price": "40억",
          "deposit": 0,
          "area1": "160",
          "area2": "136.41",
          "floor": "12/15",
          "direction": "남서향",
          "desc": "이사 협의 올수리 확장. 실입주가능,언북초 학군, 더블 역세권",
          "lat": 37.5204,
          "lng": 127.046955,
          "link": "https://new.land.naver.com/houses/2608987955"
        },
        {
          "id": "2608995330",
          "name": "삼성파크",
          "complex": "매경부동산",
          "type": "아파트",
          "trade": "매매",
          "price": "29억",
          "deposit": 0,
          "area1": "139",
          "area2": "107.38",
          "floor": "11/13",
          "direction": "동향",
          "desc": "확장형,붙박이장,채광좋은고층",
          "lat": 37.509191,
          "lng": 127.053703,
          "link": "https://new.land.naver.com/houses/2608995330"
        },
        {
          "id": "2608984739",
          "name": "삼성대우멤버스카운티3차",
          "complex": "매경부동산",
          "type": "아파트",
          "trade": "전세",
          "price": "13억",
          "deposit": 0,
          "area1": "157",
          "area2": "142.31",
          "floor": "4/6",
          "direction": "남향",
          "desc": "교육청 인근 상태 좋은 빌라 47P 확장형 채광 넘 좋습니다",
          "lat": 37.512837,
          "lng": 127.044393,
          "link": "https://new.land.naver.com/houses/2608984739"
        },
        {
          "id": "2608984734",
          "name": "삼성대우멤버스카운티3차",
          "complex": "이실장플러스",
          "type": "아파트",
          "trade": "월세",
          "price": "10억",
          "deposit": 160,
          "area1": "157",
          "area2": "142.31",
          "floor": "4/6",
          "direction": "남향",
          "desc": "교육청 인근 상태 좋은 빌라 47P 확장형 채광 넘 좋습니다",
          "lat": 37.512837,
          "lng": 127.044393,
          "link": "https://new.land.naver.com/houses/2608984734"
        },
        {
          "id": "2608975984",
          "name": "청담래미안로이뷰",
          "complex": "부동산뱅크",
          "type": "아파트",
          "trade": "매매",
          "price": "38억 5,000",
          "deposit": 0,
          "area1": "136",
          "area2": "110.2",
          "floor": "9/16",
          "direction": "남동향",
          "desc": "남향,정원뷰,한강뷰동시에가능,최저가로조정",
          "lat": 37.52452,
          "lng": 127.056236,
          "link": "https://new.land.naver.com/houses/2608975984"
        },
        {
          "id": "2608971497",
          "name": "삼성힐스테이트1단지",
          "complex": "매경부동산",
          "type": "아파트",
          "trade": "매매",
          "price": "43억",
          "deposit": 0,
          "area1": "143",
          "area2": "114.46",
          "floor": "20/23",
          "direction": "동향",
          "desc": "43 급매 최고입지 로얄층 학군,교통우수 입주협의",
          "lat": 37.516536,
          "lng": 127.048282,
          "link": "https://new.land.naver.com/houses/2608971497"
        },
        {
          "id": "2608964732",
          "name": "삼성힐스테이트1단지",
          "complex": "매경부동산",
          "type": "아파트",
          "trade": "월세",
          "price": "3억",
          "deposit": 420,
          "area1": "109",
          "area2": "84.5",
          "floor": "21/22",
          "direction": "동향",
          "desc": "33 내부상태 최상임 즉시입주 가능해요  채광 굿",
          "lat": 37.515848,
          "lng": 127.047872,
          "link": "https://new.land.naver.com/houses/2608964732"
        },
        {
          "id": "2608981130",
          "name": "삼성벽산블루밍",
          "complex": "매경부동산",
          "type": "아파트",
          "trade": "월세",
          "price": "3억",
          "deposit": 650,
          "area1": "174",
          "area2": "157.02",
          "floor": "3/7",
          "direction": "남향",
          "desc": "52. 주인의뢰. 공동환영. 내부깔끔 .정남. 올수리. 초역세권.",
          "lat": 37.51736,
          "lng": 127.052186,
          "link": "https://new.land.naver.com/houses/2608981130"
        },
        {
          "id": "2608984398",
          "name": "삼성대우멤버스카운티2차",
          "complex": "매경부동산",
          "type": "아파트",
          "trade": "매매",
          "price": "26억",
          "deposit": 0,
          "area1": "161",
          "area2": "145.6",
          "floor": "1/6",
          "direction": "남향",
          "desc": "트리플역세권  l  남향  l  내부상태굿  l  입주협의",
          "lat": 37.513134,
          "lng": 127.044298,
          "link": "https://new.land.naver.com/houses/2608984398"
        },
        {
          "id": "2608984070",
          "name": "상지리츠빌5차",
          "complex": "이실장플러스",
          "type": "아파트",
          "trade": "매매",
          "price": "59억",
          "deposit": 0,
          "area1": "236",
          "area2": "210.14",
          "floor": "8/9",
          "direction": "남향",
          "desc": "남향 햇살굿 l 특올수리 l 테라스 보유 복층펜트  l 옥상정원",
          "lat": 37.526241,
          "lng": 127.052574,
          "link": "https://new.land.naver.com/houses/2608984070"
        },
        {
          "id": "2608976050",
          "name": "청담아이파크",
          "complex": "부동산뱅크",
          "type": "아파트",
          "trade": "월세",
          "price": "1억",
          "deposit": 600,
          "area1": "137",
          "area2": "110.18",
          "floor": "9/19",
          "direction": "남서향",
          "desc": "상태좋음,보증금적은귀한매물",
          "lat": 37.525306,
          "lng": 127.0554,
          "link": "https://new.land.naver.com/houses/2608976050"
        },
        {
          "id": "2608943753",
          "name": "청담래미안로이뷰",
          "complex": "매경부동산",
          "type": "아파트",
          "trade": "매매",
          "price": "40억",
          "deposit": 0,
          "area1": "136",
          "area2": "110.2",
          "floor": "9/16",
          "direction": "남향",
          "desc": "41B. 파노라마 한강뷰. 넓은 방, 동간간섭 없음, 환기에 용이함",
          "lat": 37.52452,
          "lng": 127.056236,
          "link": "https://new.land.naver.com/houses/2608943753"
        },
        {
          "id": "2608944497",
          "name": "청담래미안로이뷰",
          "complex": "매경부동산",
          "type": "아파트",
          "trade": "전세",
          "price": "16억",
          "deposit": 0,
          "area1": "136",
          "area2": "110.2",
          "floor": "9/16",
          "direction": "남향",
          "desc": "41B. 파노라마 한강뷰. 내부상태 좋아요. 입주협의 가능",
          "lat": 37.52452,
          "lng": 127.056236,
          "link": "https://new.land.naver.com/houses/2608944497"
        },
        {
          "id": "2608948826",
          "name": "청담동양파라곤",
          "complex": "부동산뱅크",
          "type": "아파트",
          "trade": "매매",
          "price": "85억",
          "deposit": 0,
          "area1": "259",
          "area2": "219.96",
          "floor": "7/12",
          "direction": "남향",
          "desc": "새삥 멋진 인테리어 손댈 곳 없어요,쾌적한 거주,방4,서브 거실까지",
          "lat": 37.522055,
          "lng": 127.054502,
          "link": "https://new.land.naver.com/houses/2608948826"
        },
        {
          "id": "2608945184",
          "name": "청담래미안로이뷰",
          "complex": "매경부동산",
          "type": "아파트",
          "trade": "월세",
          "price": "10억",
          "deposit": 240,
          "area1": "136",
          "area2": "110.2",
          "floor": "9/16",
          "direction": "남향",
          "desc": "41B. 파노라마 한강뷰. 내부상태 좋아요. 입주협의 가능",
          "lat": 37.52452,
          "lng": 127.056236,
          "link": "https://new.land.naver.com/houses/2608945184"
        },
        {
          "id": "2608959726",
          "name": "한양5차",
          "complex": "한경부동산",
          "type": "아파트",
          "trade": "전세",
          "price": "11억",
          "deposit": 0,
          "area1": "127",
          "area2": "123.54",
          "floor": "1/12",
          "direction": "남향",
          "desc": "40.Since1978.주인직접의뢰.예전올수리.장기거주가능",
          "lat": 37.528513,
          "lng": 127.041794,
          "link": "https://new.land.naver.com/houses/2608959726"
        },
        {
          "id": "2608953584",
          "name": "삼성힐스테이트1단지",
          "complex": "매경부동산",
          "type": "아파트",
          "trade": "매매",
          "price": "35억",
          "deposit": 0,
          "area1": "109",
          "area2": "84.23",
          "floor": "2/18",
          "direction": "남향",
          "desc": "33 전실있는 남향 올확장 올마루 내부시설 양호 입주협의",
          "lat": 37.516253,
          "lng": 127.048953,
          "link": "https://new.land.naver.com/houses/2608953584"
        },
        {
          "id": "2608954159",
          "name": "우정에쉐르",
          "complex": "매경부동산",
          "type": "아파트",
          "trade": "전세",
          "price": "11억 9,000",
          "deposit": 0,
          "area1": "151",
          "area2": "131.05",
          "floor": "2/10",
          "direction": "남향",
          "desc": "주인직접 남향 올확장 올마루 내부 양호",
          "lat": 37.517188,
          "lng": 127.044213,
          "link": "https://new.land.naver.com/houses/2608954159"
        },
        {
          "id": "2608945348",
          "name": "삼성한일",
          "complex": "부동산뱅크",
          "type": "아파트",
          "trade": "매매",
          "price": "23억",
          "deposit": 0,
          "area1": "83",
          "area2": "55.34",
          "floor": "1/15",
          "direction": "동향",
          "desc": "거실 정원 뷰 ,확장 샷시 전체교체 내부상태 최상,삼성중앙역 도보5분",
          "lat": 37.514106,
          "lng": 127.049806,
          "link": "https://new.land.naver.com/houses/2608945348"
        },
        {
          "id": "2608944948",
          "name": "삼성중앙하이츠빌리지",
          "complex": "부동산뱅크",
          "type": "아파트",
          "trade": "전세",
          "price": "22억",
          "deposit": 0,
          "area1": "192",
          "area2": "152.98",
          "floor": "5/18",
          "direction": "남향",
          "desc": "58P 채광좋은 남향,거실 정원 뷰,시스템에어컨 내부상태 최상.",
          "lat": 37.516237,
          "lng": 127.04582,
          "link": "https://new.land.naver.com/houses/2608944948"
        },
        {
          "id": "2608953913",
          "name": "한솔",
          "complex": "매경부동산",
          "type": "아파트",
          "trade": "전세",
          "price": "10억 5,000",
          "deposit": 0,
          "area1": "114",
          "area2": "85",
          "floor": "13/19",
          "direction": "남향",
          "desc": "주인의뢰 남향 고층 확장 깔끔세대 빠른입주가능",
          "lat": 37.51764,
          "lng": 127.045453,
          "link": "https://new.land.naver.com/houses/2608953913"
        },
        {
          "id": "2608954041",
          "name": "삼성힐스테이트1단지",
          "complex": "매경부동산",
          "type": "아파트",
          "trade": "매매",
          "price": "36억",
          "deposit": 0,
          "area1": "109",
          "area2": "84.41",
          "floor": "8/22",
          "direction": "동향",
          "desc": "올확장  올마루 로얄층 주인세대",
          "lat": 37.515848,
          "lng": 127.047872,
          "link": "https://new.land.naver.com/houses/2608954041"
        },
        {
          "id": "2608932290",
          "name": "한양5차",
          "complex": "부동산뱅크",
          "type": "아파트",
          "trade": "월세",
          "price": "6억",
          "deposit": 300,
          "area1": "127",
          "area2": "115.24",
          "floor": "8/12",
          "direction": "남향",
          "desc": "특올수리,압구정로데오역,갤러리아백화점",
          "lat": 37.528513,
          "lng": 127.041794,
          "link": "https://new.land.naver.com/houses/2608932290"
        },
        {
          "id": "2608889456",
          "name": "원에디션강남(도시형)",
          "complex": "공실클럽",
          "type": "아파트",
          "trade": "월세",
          "price": "1억",
          "deposit": 450,
          "area1": "77",
          "area2": "49.99",
          "floor": "4/13",
          "direction": "남동향",
          "desc": "가격협의 가능, 전세, 월세, 단기임대, 즉시입주 저렴한 매물 보유중",
          "lat": 37.507817,
          "lng": 127.037697,
          "link": "https://new.land.naver.com/houses/2608889456"
        },
        {
          "id": "2608940902",
          "name": "롯데캐슬프레미어",
          "complex": "부동산뱅크",
          "type": "아파트",
          "trade": "전세",
          "price": "33억",
          "deposit": 0,
          "area1": "239",
          "area2": "213.43",
          "floor": "7/18",
          "direction": "남향",
          "desc": "72P 채광 좋은 남향, 특올수리 샤시,배관 교체,시스템에어컨,융자무",
          "lat": 37.514859,
          "lng": 127.045905,
          "link": "https://new.land.naver.com/houses/2608940902"
        },
        {
          "id": "2608931990",
          "name": "한양5차",
          "complex": "부동산뱅크",
          "type": "아파트",
          "trade": "전세",
          "price": "13억",
          "deposit": 0,
          "area1": "127",
          "area2": "115.24",
          "floor": "8/12",
          "direction": "남향",
          "desc": "특올수리, 작은방 주방으로 확장. 방3개",
          "lat": 37.528513,
          "lng": 127.041794,
          "link": "https://new.land.naver.com/houses/2608931990"
        },
        {
          "id": "2608941002",
          "name": "롯데캐슬프레미어",
          "complex": "부동산뱅크",
          "type": "아파트",
          "trade": "매매",
          "price": "42억",
          "deposit": 0,
          "area1": "145",
          "area2": "121.93",
          "floor": "13/21",
          "direction": "남향",
          "desc": "43P 채광 좋은 남향, 확장, 로얄동로얄층,트리플역세권.",
          "lat": 37.515132,
          "lng": 127.043968,
          "link": "https://new.land.naver.com/houses/2608941002"
        },
        {
          "id": "2608930990",
          "name": "골든카운티",
          "complex": "부동산뱅크",
          "type": "아파트",
          "trade": "월세",
          "price": "6억",
          "deposit": 240,
          "area1": "190",
          "area2": "163.26",
          "floor": "10/12",
          "direction": "남향",
          "desc": "58P 복층구조,뷰 좋은 남향,전체수리되어 있음,보증금상향 가",
          "lat": 37.516949,
          "lng": 127.046376,
          "link": "https://new.land.naver.com/houses/2608930990"
        },
        {
          "id": "2608913553",
          "name": "목화",
          "complex": "매경부동산",
          "type": "아파트",
          "trade": "전세",
          "price": "12억 5,000",
          "deposit": 0,
          "area1": "149",
          "area2": "133.97",
          "floor": "7/12",
          "direction": "남향",
          "desc": "로얄층 수리잘된세대, 한강뷰, 소유주분의뢰매물",
          "lat": 37.528183,
          "lng": 127.050012,
          "link": "https://new.land.naver.com/houses/2608913553"
        },
        {
          "id": "2608892907",
          "name": "청담신원아침도시마인(도시형)",
          "complex": "매경부동산",
          "type": "아파트",
          "trade": "매매",
          "price": "3억 3,000",
          "deposit": 0,
          "area1": "39",
          "area2": "27.71",
          "floor": "5/10",
          "direction": "동향",
          "desc": "풀옵션,자주식주차,실입주가능",
          "lat": 37.526567,
          "lng": 127.049624,
          "link": "https://new.land.naver.com/houses/2608892907"
        },
        {
          "id": "2608941384",
          "name": "롯데캐슬프레미어",
          "complex": "부동산뱅크",
          "type": "아파트",
          "trade": "매매",
          "price": "57억",
          "deposit": 0,
          "area1": "201",
          "area2": "176.61",
          "floor": "12/18",
          "direction": "남향",
          "desc": "60P, 뷰 좋은 남향, 내부상태 좋음, 트리플역세권",
          "lat": 37.515062,
          "lng": 127.046502,
          "link": "https://new.land.naver.com/houses/2608941384"
        },
        {
          "id": "2608883973",
          "name": "삼성힐스테이트1단지",
          "complex": "부동산뱅크",
          "type": "아파트",
          "trade": "매매",
          "price": "37억 5,000",
          "deposit": 0,
          "area1": "109",
          "area2": "84.23",
          "floor": "15/18",
          "direction": "남향",
          "desc": "33 주인의뢰 탁트인시야 개방감최고 최상급 조정가",
          "lat": 37.516033,
          "lng": 127.047384,
          "link": "https://new.land.naver.com/houses/2608883973"
        },
        {
          "id": "2608941677",
          "name": "롯데캐슬프레미어",
          "complex": "부동산뱅크",
          "type": "아파트",
          "trade": "월세",
          "price": "4억",
          "deposit": 460,
          "area1": "145",
          "area2": "121.93",
          "floor": "3/21",
          "direction": "남향",
          "desc": "43P채광 좋은 남향, 거실 정원  뷰,트리플 역세권,보증금상향 가",
          "lat": 37.515174,
          "lng": 127.044781,
          "link": "https://new.land.naver.com/houses/2608941677"
        },
        {
          "id": "2608931206",
          "name": "골든카운티",
          "complex": "부동산뱅크",
          "type": "아파트",
          "trade": "전세",
          "price": "12억",
          "deposit": 0,
          "area1": "190",
          "area2": "163.26",
          "floor": "10/12",
          "direction": "남향",
          "desc": "58P 복층구조,뷰 좋은 남향,수리되어 있음, 더블역세권 ,반전세 가",
          "lat": 37.516949,
          "lng": 127.046376,
          "link": "https://new.land.naver.com/houses/2608931206"
        },
        {
          "id": "2608931131",
          "name": "삼성한일",
          "complex": "매경부동산",
          "type": "아파트",
          "trade": "매매",
          "price": "22억 5,000",
          "deposit": 0,
          "area1": "83",
          "area2": "55.34",
          "floor": "3/15",
          "direction": "동향",
          "desc": "확장.마루.상태 좋아요.도심복합개발추진내 물건.",
          "lat": 37.514106,
          "lng": 127.049806,
          "link": "https://new.land.naver.com/houses/2608931131"
        },
        {
          "id": "2608940737",
          "name": "롯데캐슬프레미어",
          "complex": "부동산뱅크",
          "type": "아파트",
          "trade": "월세",
          "price": "25억",
          "deposit": 320,
          "area1": "239",
          "area2": "213.43",
          "floor": "7/18",
          "direction": "남향",
          "desc": "72P 남향,특올수리  샷시교체, 배관교체 ,시스템에어컨, 융자 무",
          "lat": 37.514859,
          "lng": 127.045905,
          "link": "https://new.land.naver.com/houses/2608940737"
        },
        {
          "id": "2608942922",
          "name": "삼성대우멤버스카운티2차",
          "complex": "부동산뱅크",
          "type": "아파트",
          "trade": "매매",
          "price": "28억",
          "deposit": 0,
          "area1": "161",
          "area2": "145.6",
          "floor": "4/6",
          "direction": "동향",
          "desc": "49P,비확장 전체수리  관리 잘 된 집, 9호선 선정릉역 도보5분",
          "lat": 37.513134,
          "lng": 127.044298,
          "link": "https://new.land.naver.com/houses/2608942922"
        },
        {
          "id": "2608882788",
          "name": "논현동양파라곤",
          "complex": "매경부동산",
          "type": "아파트",
          "trade": "매매",
          "price": "41억",
          "deposit": 0,
          "area1": "194",
          "area2": "160.33",
          "floor": "4/16",
          "direction": "남향",
          "desc": "강남 고품격 명품브랜드 동양파라곤아파트 ",
          "lat": 37.514991,
          "lng": 127.037725,
          "link": "https://new.land.naver.com/houses/2608882788"
        },
        {
          "id": "2608931170",
          "name": "삼성한일",
          "complex": "매경부동산",
          "type": "아파트",
          "trade": "매매",
          "price": "23억 5,000",
          "deposit": 0,
          "area1": "108",
          "area2": "80.29",
          "floor": "9/15",
          "direction": "동향",
          "desc": "상태깔금.화장실등 부분 수리됨.도심복합개발추진내 물건.",
          "lat": 37.514106,
          "lng": 127.049806,
          "link": "https://new.land.naver.com/houses/2608931170"
        },
        {
          "id": "2608914208",
          "name": "목화",
          "complex": "매경부동산",
          "type": "아파트",
          "trade": "매매",
          "price": "35억",
          "deposit": 0,
          "area1": "149",
          "area2": "133.97",
          "floor": "3/12",
          "direction": "남향",
          "desc": "한강변 공원뷰 수리잘된세대로 한강변재건축이슈 매물",
          "lat": 37.528183,
          "lng": 127.050012,
          "link": "https://new.land.naver.com/houses/2608914208"
        },
        {
          "id": "2608927642",
          "name": "빌폴라리스",
          "complex": "부동산뱅크",
          "type": "아파트",
          "trade": "매매",
          "price": "80억",
          "deposit": 0,
          "area1": "203",
          "area2": "166.01",
          "floor": "11/20",
          "direction": "남동향",
          "desc": "내부 리모델링완료 공동환영 금액조정가능",
          "lat": 37.525509,
          "lng": 127.053746,
          "link": "https://new.land.naver.com/houses/2608927642"
        },
        {
          "id": "2608925733",
          "name": "빌폴라리스",
          "complex": "부동산뱅크",
          "type": "아파트",
          "trade": "월세",
          "price": "25억",
          "deposit": 1000,
          "area1": "203",
          "area2": "166.01",
          "floor": "4/20",
          "direction": "남동향",
          "desc": "금액조정가능 밝은 화이트톤 인테리어 뻥뷰 시티뷰",
          "lat": 37.525509,
          "lng": 127.053746,
          "link": "https://new.land.naver.com/houses/2608925733"
        },
        {
          "id": "2608815792",
          "name": "래미안삼성2차",
          "complex": "매경부동산",
          "type": "아파트",
          "trade": "매매",
          "price": "42억 5,000",
          "deposit": 0,
          "area1": "149",
          "area2": "119.29",
          "floor": "11/13",
          "direction": "남향",
          "desc": "남향 로얄층 학세권 역세권  내부상태 화이트톤으로  올수리한집",
          "lat": 37.516097,
          "lng": 127.042982,
          "link": "https://new.land.naver.com/houses/2608815792"
        },
        {
          "id": "2608822969",
          "name": "삼성센트럴아이파크",
          "complex": "매경부동산",
          "type": "아파트",
          "trade": "매매",
          "price": "48억",
          "deposit": 0,
          "area1": "158",
          "area2": "123.3",
          "floor": "6/27",
          "direction": "남향",
          "desc": "48 주인의뢰 급매 남향 시스템에어컨 입주협의",
          "lat": 37.515072,
          "lng": 127.051129,
          "link": "https://new.land.naver.com/houses/2608822969"
        },
        {
          "id": "2608861373",
          "name": "청담래미안로이뷰",
          "complex": "매경부동산",
          "type": "아파트",
          "trade": "월세",
          "price": "5,000",
          "deposit": 800,
          "area1": "136",
          "area2": "110.2",
          "floor": "2/16",
          "direction": "남향",
          "desc": "양창에 트인 조경뷰, 이쁜집, 빠른입주 가능",
          "lat": 37.52452,
          "lng": 127.056236,
          "link": "https://new.land.naver.com/houses/2608861373"
        },
        {
          "id": "2608853307",
          "name": "강남파라곤(주상복합)",
          "complex": "매경부동산",
          "type": "아파트",
          "trade": "매매",
          "price": "16억 5,000",
          "deposit": 0,
          "area1": "100",
          "area2": "84.4",
          "floor": "7/20",
          "direction": "서향",
          "desc": "급매 협상 주인직접 상태깔끔 실입주 다양한 편의시설",
          "lat": 37.516588,
          "lng": 127.040261,
          "link": "https://new.land.naver.com/houses/2608853307"
        },
        {
          "id": "2608810351",
          "name": "청담포레",
          "complex": "부동산뱅크",
          "type": "아파트",
          "trade": "월세",
          "price": "15억",
          "deposit": 100,
          "area1": "267",
          "area2": "238.16",
          "floor": "8/12",
          "direction": "남향",
          "desc": "81. 보증금 조절 가능. 내부 수리 완료. 널찍한 내부구조",
          "lat": 37.522586,
          "lng": 127.052074,
          "link": "https://new.land.naver.com/houses/2608810351"
        },
        {
          "id": "2608823198",
          "name": "삼성센트럴아이파크",
          "complex": "매경부동산",
          "type": "아파트",
          "trade": "전세",
          "price": "22억",
          "deposit": 0,
          "area1": "135",
          "area2": "103.32",
          "floor": "2/31",
          "direction": "남서향",
          "desc": "40 주인의뢰 풀시스템에어컨 조경뷰 입주협의",
          "lat": 37.515749,
          "lng": 127.051116,
          "link": "https://new.land.naver.com/houses/2608823198"
        },
        {
          "id": "2608808487",
          "name": "청담포레",
          "complex": "부동산뱅크",
          "type": "아파트",
          "trade": "전세",
          "price": "18억",
          "deposit": 0,
          "area1": "267",
          "area2": "238.16",
          "floor": "8/12",
          "direction": "남향",
          "desc": "81. 평형 대비 좋은 금액. 큼직한 4룸. 한층 한세대. 깔끔 수리",
          "lat": 37.522586,
          "lng": 127.052074,
          "link": "https://new.land.naver.com/houses/2608808487"
        },
        {
          "id": "2608823168",
          "name": "삼성센트럴아이파크",
          "complex": "매경부동산",
          "type": "아파트",
          "trade": "매매",
          "price": "45억",
          "deposit": 0,
          "area1": "135",
          "area2": "103.32",
          "floor": "2/31",
          "direction": "남서향",
          "desc": "40 주인직접 현장업소 예쁜 정원뷰 풀옵션 올수리",
          "lat": 37.515749,
          "lng": 127.051116,
          "link": "https://new.land.naver.com/houses/2608823168"
        },
        {
          "id": "2608810101",
          "name": "삼성힐스테이트2단지",
          "complex": "매경부동산",
          "type": "아파트",
          "trade": "월세",
          "price": "8억 5,000",
          "deposit": 130,
          "area1": "109",
          "area2": "84.23",
          "floor": "2/22",
          "direction": "남향",
          "desc": "남향 올확장 마루 내부상테 좋은 아늑하고 평안한집",
          "lat": 37.513863,
          "lng": 127.052049,
          "link": "https://new.land.naver.com/houses/2608810101"
        },
        {
          "id": "2608804007",
          "name": "청담린든그로브",
          "complex": "부동산뱅크",
          "type": "아파트",
          "trade": "매매",
          "price": "35억",
          "deposit": 0,
          "area1": "115",
          "area2": "84.99",
          "floor": "4/7",
          "direction": "동향",
          "desc": "35D. 주인의뢰. 채광 좋은 밝은 내부. 거실과 방이 분리된 타입",
          "lat": 37.522988,
          "lng": 127.05347,
          "link": "https://new.land.naver.com/houses/2608804007"
        },
        {
          "id": "2608862347",
          "name": "청담린든그로브",
          "complex": "매경부동산",
          "type": "아파트",
          "trade": "매매",
          "price": "35억",
          "deposit": 0,
          "area1": "115",
          "area2": "84.94",
          "floor": "5/7",
          "direction": "남향",
          "desc": "유럽풍 단지형 고급빌라 느낌에 아파트",
          "lat": 37.52255,
          "lng": 127.053822,
          "link": "https://new.land.naver.com/houses/2608862347"
        },
        {
          "id": "2608822986",
          "name": "삼성센트럴아이파크",
          "complex": "매경부동산",
          "type": "아파트",
          "trade": "전세",
          "price": "16억 8,000",
          "deposit": 0,
          "area1": "113",
          "area2": "84.98",
          "floor": "4/31",
          "direction": "남향",
          "desc": "주인의뢰 34 풀시스템에어컨 빠른입주가능 내부아주깔끔",
          "lat": 37.515172,
          "lng": 127.051461,
          "link": "https://new.land.naver.com/houses/2608822986"
        },
        {
          "id": "2608799068",
          "name": "청담린든그로브",
          "complex": "부동산뱅크",
          "type": "아파트",
          "trade": "월세",
          "price": "5억",
          "deposit": 550,
          "area1": "115",
          "area2": "84.94",
          "floor": "5/7",
          "direction": "남향",
          "desc": "35. 햇살 가득한 남향 양창 거실. 준신축 아주 깔끔한 내부컨디션",
          "lat": 37.52255,
          "lng": 127.053822,
          "link": "https://new.land.naver.com/houses/2608799068"
        },
        {
          "id": "2608788086",
          "name": "우정에쉐르",
          "complex": "이실장플러스",
          "type": "아파트",
          "trade": "전세",
          "price": "12억",
          "deposit": 0,
          "area1": "151",
          "area2": "131.05",
          "floor": "4/10",
          "direction": "남향",
          "desc": "46,확장,관리 잘된세대,풍수학으로우수한세대",
          "lat": 37.517188,
          "lng": 127.044213,
          "link": "https://new.land.naver.com/houses/2608788086"
        },
        {
          "id": "2608838846",
          "name": "진흥",
          "complex": "매경부동산",
          "type": "아파트",
          "trade": "매매",
          "price": "64억",
          "deposit": 0,
          "area1": "221",
          "area2": "207.82",
          "floor": "6/15",
          "direction": "남향",
          "desc": "68p 수리됨 앞전망확트임 청담역2분 경기고학군 재건축 ",
          "lat": 37.519056,
          "lng": 127.053556,
          "link": "https://new.land.naver.com/houses/2608838846"
        },
        {
          "id": "2608813375",
          "name": "아츠논현(도시형)",
          "complex": "매경부동산",
          "type": "아파트",
          "trade": "매매",
          "price": "17억",
          "deposit": 0,
          "area1": "50",
          "area2": "38.98",
          "floor": "15/20",
          "direction": "서향",
          "desc": "인피니티풀 하이엔드 오피스텔",
          "lat": 37.512229,
          "lng": 127.036154,
          "link": "https://new.land.naver.com/houses/2608813375"
        },
        {
          "id": "2608859128",
          "name": "청담현대3차",
          "complex": "매경부동산",
          "type": "아파트",
          "trade": "매매",
          "price": "39억",
          "deposit": 0,
          "area1": "142",
          "area2": "109.53",
          "floor": "2/24",
          "direction": "북동향",
          "desc": "소유주직접의뢰 한강뷰 조경뷰 한강변아파트 거주 투자추천 주차2대편리",
          "lat": 37.527168,
          "lng": 127.05386,
          "link": "https://new.land.naver.com/houses/2608859128"
        },
        {
          "id": "2608822895",
          "name": "삼성센트럴아이파크",
          "complex": "매경부동산",
          "type": "아파트",
          "trade": "매매",
          "price": "88억",
          "deposit": 0,
          "area1": "210",
          "area2": "160.5",
          "floor": "21/27",
          "direction": "남동향",
          "desc": "소유주의뢰 현장업소 귀한펜트세대 넓은 테라스 트인전망",
          "lat": 37.515072,
          "lng": 127.051129,
          "link": "https://new.land.naver.com/houses/2608822895"
        },
        {
          "id": "2608794494",
          "name": "삼성힐스테이트2단지",
          "complex": "매경부동산",
          "type": "아파트",
          "trade": "월세",
          "price": "1억",
          "deposit": 450,
          "area1": "109",
          "area2": "84.23",
          "floor": "17/22",
          "direction": "남향",
          "desc": "33주인직접의뢰 조정가 남향 로얄층",
          "lat": 37.513984,
          "lng": 127.052443,
          "link": "https://new.land.naver.com/houses/2608794494"
        },
        {
          "id": "2608823849",
          "name": "래미안라클래시",
          "complex": "매경부동산",
          "type": "아파트",
          "trade": "월세",
          "price": "8억",
          "deposit": 390,
          "area1": "113",
          "area2": "84.99",
          "floor": "3/28",
          "direction": "남향",
          "desc": "34 남향 판상형 풀에어컨풀옵션 보증금증액가능",
          "lat": 37.51817,
          "lng": 127.049196,
          "link": "https://new.land.naver.com/houses/2608823849"
        },
        {
          "id": "2608778154",
          "name": "청담현대3차",
          "complex": "부동산써브",
          "type": "아파트",
          "trade": "전세",
          "price": "11억",
          "deposit": 0,
          "area1": "108",
          "area2": "85",
          "floor": "7/16",
          "direction": "남동향",
          "desc": "내부 부분수리 깨끗, 붙박이장, 남향이라 밝아요, 입주협의, 무료주차2대",
          "lat": 37.527135,
          "lng": 127.053092,
          "link": "https://new.land.naver.com/houses/2608778154"
        },
        {
          "id": "2608752094",
          "name": "원에디션강남(도시형)",
          "complex": "부동산포스",
          "type": "아파트",
          "trade": "매매",
          "price": "10억 9,700",
          "deposit": 0,
          "area1": "43",
          "area2": "28.34",
          "floor": "10/15",
          "direction": "남향",
          "desc": "로얄층 정남향 반듯한 사각형 구조 하이엔드 도시형생활주택",
          "lat": 37.507991,
          "lng": 127.038438,
          "link": "https://new.land.naver.com/houses/2608752094"
        },
        {
          "id": "2608784625",
          "name": "청담어퍼하우스",
          "complex": "부동산뱅크",
          "type": "아파트",
          "trade": "매매",
          "price": "90억",
          "deposit": 0,
          "area1": "225",
          "area2": "197.73",
          "floor": "5/7",
          "direction": "남향",
          "desc": "채광 좋고 구조 좋음 내부 컨디션 최상",
          "lat": 37.520901,
          "lng": 127.05022,
          "link": "https://new.land.naver.com/houses/2608784625"
        },
        {
          "id": "2608784620",
          "name": "청담어퍼하우스",
          "complex": "부동산뱅크",
          "type": "아파트",
          "trade": "매매",
          "price": "90억",
          "deposit": 0,
          "area1": "225",
          "area2": "197.73",
          "floor": "5/7",
          "direction": "남향",
          "desc": "채광 좋고 구조 좋음 내부 컨디션 최상",
          "lat": 37.520901,
          "lng": 127.05022,
          "link": "https://new.land.naver.com/houses/2608784620"
        },
        {
          "id": "2608784614",
          "name": "청담어퍼하우스",
          "complex": "부동산뱅크",
          "type": "아파트",
          "trade": "매매",
          "price": "90억",
          "deposit": 0,
          "area1": "225",
          "area2": "197.73",
          "floor": "5/7",
          "direction": "남향",
          "desc": "채광 좋고 구조 좋음 내부 컨디션 최상",
          "lat": 37.520901,
          "lng": 127.05022,
          "link": "https://new.land.naver.com/houses/2608784614"
        },
        {
          "id": "2608934054",
          "name": "강변상지리츠빌",
          "complex": "선방",
          "type": "아파트",
          "trade": "전세",
          "price": "30억",
          "deposit": 0,
          "area1": "196",
          "area2": "171.79",
          "floor": "3/13",
          "direction": "북향",
          "desc": "O2 청담동 오솔길 한강라인 올리모델링 고급주택",
          "lat": 37.528007,
          "lng": 127.050603,
          "link": "https://new.land.naver.com/houses/2608934054"
        },
        {
          "id": "2608934470",
          "name": "청담대우로얄카운티Ⅰ",
          "complex": "선방",
          "type": "아파트",
          "trade": "매매",
          "price": "65억",
          "deposit": 0,
          "area1": "237",
          "area2": "219.66",
          "floor": "8/9",
          "direction": "남향",
          "desc": "올리모델링 주차3대 지정석 대지지분 39P",
          "lat": 37.526428,
          "lng": 127.048111,
          "link": "https://new.land.naver.com/houses/2608934470"
        },
        {
          "id": "2608800174",
          "name": "도산포도더블랙(도시형)",
          "complex": "우리집부동산",
          "type": "아파트",
          "trade": "전세",
          "price": "11억",
          "deposit": 0,
          "area1": "66",
          "area2": "49.92",
          "floor": "3/19",
          "direction": "북향",
          "desc": "도산대로 하이엔드, 시티뷰, 테라스, 2룸, 인기타입, 협의입주",
          "lat": 37.520588,
          "lng": 127.032534,
          "link": "https://new.land.naver.com/houses/2608800174"
        },
        {
          "id": "2608886084",
          "name": "우민",
          "complex": "매경부동산",
          "type": "아파트",
          "trade": "매매",
          "price": "14억 3,000",
          "deposit": 0,
          "area1": "99",
          "area2": "74.75",
          "floor": "4/6",
          "direction": "남서향",
          "desc": "주인직매물.최근특올수리.내부최상.입주가능",
          "lat": 37.51787,
          "lng": 127.03739,
          "link": "https://new.land.naver.com/houses/2608886084"
        },
        {
          "id": "2608935229",
          "name": "논현아펠바움1차",
          "complex": "부동산뱅크",
          "type": "아파트",
          "trade": "월세",
          "price": "5억",
          "deposit": 1500,
          "area1": "277",
          "area2": "244.67",
          "floor": "2/4",
          "direction": "남향",
          "desc": "내부컨디션굿 대형평수 화이트톤 인테리어",
          "lat": 37.513302,
          "lng": 127.037261,
          "link": "https://new.land.naver.com/houses/2608935229"
        },
        {
          "id": "2608892356",
          "name": "논현프라임(192-3)",
          "complex": "아실",
          "type": "아파트",
          "trade": "매매",
          "price": "25억",
          "deposit": 0,
          "area1": "144",
          "area2": "134.28",
          "floor": "3/7",
          "direction": "남향",
          "desc": "급매 I 주인 직접 I 언주역 초역세권 대지지분 큰 투자매물",
          "lat": 37.508157,
          "lng": 127.032836,
          "link": "https://new.land.naver.com/houses/2608892356"
        },
        {
          "id": "2608931720",
          "name": "논현아펠바움1차",
          "complex": "부동산뱅크",
          "type": "아파트",
          "trade": "전세",
          "price": "42억",
          "deposit": 0,
          "area1": "277",
          "area2": "244.67",
          "floor": "2/4",
          "direction": "남향",
          "desc": "내부컨디션굿 대형평수 화이트톤 인테리어",
          "lat": 37.513302,
          "lng": 127.037261,
          "link": "https://new.land.naver.com/houses/2608931720"
        },
        {
          "id": "2608933278",
          "name": "논현아펠바움1차",
          "complex": "부동산뱅크",
          "type": "아파트",
          "trade": "매매",
          "price": "70억",
          "deposit": 0,
          "area1": "277",
          "area2": "244.67",
          "floor": "2/4",
          "direction": "남향",
          "desc": "내부컨디션굿 대형평수 화이트톤 인테리어",
          "lat": 37.513302,
          "lng": 127.037261,
          "link": "https://new.land.naver.com/houses/2608933278"
        },
        {
          "id": "2608951848",
          "name": "더원센트럴(주상복합)",
          "complex": "부동산뱅크",
          "type": "아파트",
          "trade": "매매",
          "price": "4억 8,000",
          "deposit": 0,
          "area1": "34",
          "area2": "27.14",
          "floor": "7/10",
          "direction": "남서향",
          "desc": "강남구청역 도보 1분, 준신축 투룸 아파트 매매",
          "lat": 37.517178,
          "lng": 127.039677,
          "link": "https://new.land.naver.com/houses/2608951848"
        },
        {
          "id": "2608953154",
          "name": "청담스테이",
          "complex": "매경부동산",
          "type": "아파트",
          "trade": "매매",
          "price": "7억 5,000",
          "deposit": 0,
          "area1": "32",
          "area2": "28.52",
          "floor": "5/6",
          "direction": "북동향",
          "desc": "15 신혼부부 강추.귀한 테라스세대.분리형원룸.풀옵션.역세권.협의입주",
          "lat": 37.519186,
          "lng": 127.042262,
          "link": "https://new.land.naver.com/houses/2608953154"
        },
        {
          "id": "2608934084",
          "name": "강변상지리츠빌",
          "complex": "선방",
          "type": "아파트",
          "trade": "월세",
          "price": "25억",
          "deposit": 200,
          "area1": "196",
          "area2": "171.79",
          "floor": "3/13",
          "direction": "북향",
          "desc": "O2 청담동 오솔길 한강라인 올리모델링 고급주택",
          "lat": 37.528007,
          "lng": 127.050603,
          "link": "https://new.land.naver.com/houses/2608934084"
        },
        {
          "id": "2608801688",
          "name": "청담대우멤버스카운티9차",
          "complex": "부동산뱅크",
          "type": "아파트",
          "trade": "월세",
          "price": "2억",
          "deposit": 750,
          "area1": "136",
          "area2": "123.8",
          "floor": "3/5",
          "direction": "남향",
          "desc": "41. 보증금 조절 가능. 밝은 톤 깔끔한 올수리. 조용한 고급 단지",
          "lat": 37.526894,
          "lng": 127.05116,
          "link": "https://new.land.naver.com/houses/2608801688"
        },
        {
          "id": "2608853661",
          "name": "삼성힐스테이트1단지",
          "complex": "매경부동산",
          "type": "아파트",
          "trade": "매매",
          "price": "37억",
          "deposit": 0,
          "area1": "109",
          "area2": "84.5",
          "floor": "14/23",
          "direction": "남향",
          "desc": "33 확장된 최근 특올수리 , 뻥뷰,계좌나와요",
          "lat": 37.516439,
          "lng": 127.047424,
          "link": "https://new.land.naver.com/houses/2608853661"
        },
        {
          "id": "2608944974",
          "name": "청담디에브스",
          "complex": "부동산뱅크",
          "type": "아파트",
          "trade": "월세",
          "price": "3,000",
          "deposit": 300,
          "area1": "84",
          "area2": "50.63",
          "floor": "6/8",
          "direction": "남향",
          "desc": "테라스 투룸 , 남향 햇살가득한 집, 주차가능,합리적인 반전세",
          "lat": 37.522915,
          "lng": 127.049047,
          "link": "https://new.land.naver.com/houses/2608944974"
        },
        {
          "id": "2608956133",
          "name": "청담스테이",
          "complex": "매경부동산",
          "type": "아파트",
          "trade": "매매",
          "price": "7억 8,000",
          "deposit": 0,
          "area1": "30",
          "area2": "27.11",
          "floor": "6/6",
          "direction": "북동향",
          "desc": "22분리형원,복층형,신혼부부,신축, 풀옵션, 원목마루, 역세권, 입주협의",
          "lat": 37.519186,
          "lng": 127.042262,
          "link": "https://new.land.naver.com/houses/2608956133"
        },
        {
          "id": "2608796707",
          "name": "상지리츠빌5차",
          "complex": "부동산뱅크",
          "type": "아파트",
          "trade": "월세",
          "price": "17억",
          "deposit": 900,
          "area1": "236",
          "area2": "210.14",
          "floor": "8/9",
          "direction": "남향",
          "desc": "펜트 복층테라스세대  올리모델링",
          "lat": 37.526241,
          "lng": 127.052574,
          "link": "https://new.land.naver.com/houses/2608796707"
        },
        {
          "id": "2608796521",
          "name": "논현프라임(192-3)",
          "complex": "매경부동산",
          "type": "아파트",
          "trade": "매매",
          "price": "20억",
          "deposit": 0,
          "area1": "145",
          "area2": "135.3",
          "floor": "1/7",
          "direction": "남향",
          "desc": "1정원 특올수리 빠른입주가능",
          "lat": 37.508157,
          "lng": 127.032836,
          "link": "https://new.land.naver.com/houses/2608796521"
        },
        {
          "id": "2608754986",
          "name": "청담래미안로이뷰",
          "complex": "매경부동산",
          "type": "아파트",
          "trade": "전세",
          "price": "16억 5,000",
          "deposit": 0,
          "area1": "136",
          "area2": "110.2",
          "floor": "15/16",
          "direction": "북동향",
          "desc": "한강뷰 임대인거주 관리 잘 되어 있는집",
          "lat": 37.52452,
          "lng": 127.056236,
          "link": "https://new.land.naver.com/houses/2608754986"
        },
        {
          "id": "2608793807",
          "name": "아델하우스",
          "complex": "부동산뱅크",
          "type": "아파트",
          "trade": "매매",
          "price": "75억",
          "deposit": 0,
          "area1": "221",
          "area2": "206.42",
          "floor": "1/7",
          "direction": "남향",
          "desc": "정원세대 특올수리 내부깨끗",
          "lat": 37.516965,
          "lng": 127.052383,
          "link": "https://new.land.naver.com/houses/2608793807"
        },
        {
          "id": "2608792208",
          "name": "펜트힐캐스케이드(도시형)",
          "complex": "부동산뱅크",
          "type": "아파트",
          "trade": "월세",
          "price": "5,000",
          "deposit": 400,
          "area1": "71",
          "area2": "48.03",
          "floor": "13/18",
          "direction": "동향",
          "desc": "내부깔끔하고 좋습니다 즉시입주가능",
          "lat": 37.518184,
          "lng": 127.035676,
          "link": "https://new.land.naver.com/houses/2608792208"
        },
        {
          "id": "2608731410",
          "name": "우민",
          "complex": "공실클럽",
          "type": "아파트",
          "trade": "매매",
          "price": "14억 5,000",
          "deposit": 0,
          "area1": "99",
          "area2": "74.75",
          "floor": "3/6",
          "direction": "서향",
          "desc": "올리모델링 된 예쁜집.강남구청역세권",
          "lat": 37.51787,
          "lng": 127.03739,
          "link": "https://new.land.naver.com/houses/2608731410"
        },
        {
          "id": "2608767398",
          "name": "청담삼성3차",
          "complex": "매경부동산",
          "type": "아파트",
          "trade": "매매",
          "price": "21억",
          "deposit": 0,
          "area1": "86",
          "area2": "59.99",
          "floor": "4/18",
          "direction": "동향",
          "desc": "급매매 갭투자추천 ",
          "lat": 37.51786,
          "lng": 127.04312,
          "link": "https://new.land.naver.com/houses/2608767398"
        },
        {
          "id": "2608743569",
          "name": "논현웰스톤(주상복합)",
          "complex": "공실클럽",
          "type": "아파트",
          "trade": "매매",
          "price": "13억",
          "deposit": 0,
          "area1": "100",
          "area2": "81.98",
          "floor": "4/8",
          "direction": "남향",
          "desc": "로열층 남향.보심 맘에 드실겁니다",
          "lat": 37.518399,
          "lng": 127.03801,
          "link": "https://new.land.naver.com/houses/2608743569"
        },
        {
          "id": "2608740150",
          "name": "아츠논현(도시형)",
          "complex": "부동산뱅크",
          "type": "아파트",
          "trade": "매매",
          "price": "15억 1,000",
          "deposit": 0,
          "area1": "50",
          "area2": "38.98",
          "floor": "15/20",
          "direction": "동향",
          "desc": "전망 좋은 테라스 명품 수입 가전 하이엔드 오피스텔",
          "lat": 37.512229,
          "lng": 127.036154,
          "link": "https://new.land.naver.com/houses/2608740150"
        },
        {
          "id": "2608794391",
          "name": "동현",
          "complex": "매경부동산",
          "type": "아파트",
          "trade": "매매",
          "price": "31억",
          "deposit": 0,
          "area1": "102",
          "area2": "84.92",
          "floor": "6/12",
          "direction": "남향",
          "desc": "31 최근특올수리확장  남향 입주협의",
          "lat": 37.5196,
          "lng": 127.03699,
          "link": "https://new.land.naver.com/houses/2608794391"
        },
        {
          "id": "2608752947",
          "name": "청담래미안로이뷰",
          "complex": "매경부동산",
          "type": "아파트",
          "trade": "월세",
          "price": "10억",
          "deposit": 260,
          "area1": "136",
          "area2": "110.2",
          "floor": "15/16",
          "direction": "북동향",
          "desc": "한강뷰 넓은거실  보증금 조절가능",
          "lat": 37.52452,
          "lng": 127.056236,
          "link": "https://new.land.naver.com/houses/2608752947"
        },
        {
          "id": "2608778683",
          "name": "청담현대3차",
          "complex": "매경부동산",
          "type": "아파트",
          "trade": "전세",
          "price": "7억",
          "deposit": 0,
          "area1": "91",
          "area2": "59.95",
          "floor": "1/17",
          "direction": "남동향",
          "desc": "확장올수리 컨디션 아주 좋아요,  1층 정원느낌,즉시입주 협의",
          "lat": 37.526879,
          "lng": 127.052676,
          "link": "https://new.land.naver.com/houses/2608778683"
        },
        {
          "id": "2608721334",
          "name": "씨티2차",
          "complex": "부동산뱅크",
          "type": "아파트",
          "trade": "월세",
          "price": "6억 5,000",
          "deposit": 120,
          "area1": "112",
          "area2": "97.74",
          "floor": "1/11",
          "direction": "남향",
          "desc": "주인직접, 볕잘드는 남향. 수리세대..",
          "lat": 37.528374,
          "lng": 127.049195,
          "link": "https://new.land.naver.com/houses/2608721334"
        },
        {
          "id": "2608736359",
          "name": "대우멤버스카운티Ⅱ",
          "complex": "선방",
          "type": "아파트",
          "trade": "매매",
          "price": "26억",
          "deposit": 0,
          "area1": "155",
          "area2": "140.75",
          "floor": "5/6",
          "direction": "남향",
          "desc": "청담공원인접 입주민만족도 좋은 브랜드고급빌라",
          "lat": 37.52257,
          "lng": 127.051294,
          "link": "https://new.land.naver.com/houses/2608736359"
        },
        {
          "id": "2608792313",
          "name": "펜트힐캐스케이드(도시형)",
          "complex": "부동산뱅크",
          "type": "아파트",
          "trade": "월세",
          "price": "5,000",
          "deposit": 350,
          "area1": "63",
          "area2": "43.01",
          "floor": "4/18",
          "direction": "서향",
          "desc": "앞에 막힌곳 없고,집은 언제든지 볼 수 있습니다",
          "lat": 37.518184,
          "lng": 127.035676,
          "link": "https://new.land.naver.com/houses/2608792313"
        },
        {
          "id": "2608722183",
          "name": "청담현대3차",
          "complex": "부동산뱅크",
          "type": "아파트",
          "trade": "전세",
          "price": "14억",
          "deposit": 0,
          "area1": "142",
          "area2": "109.53",
          "floor": "14/16",
          "direction": "남동향",
          "desc": "확장 올수리 내부컨디션 최상. 빠른입주 가능.",
          "lat": 37.527135,
          "lng": 127.053092,
          "link": "https://new.land.naver.com/houses/2608722183"
        },
        {
          "id": "2608756507",
          "name": "대우로얄카운티V",
          "complex": "부동산뱅크",
          "type": "아파트",
          "trade": "매매",
          "price": "90억",
          "deposit": 0,
          "area1": "244",
          "area2": "216.16",
          "floor": "12/12",
          "direction": "남향",
          "desc": "숲세권 조용한 주거 환걍 청담동원 조망 굿굿",
          "lat": 37.522615,
          "lng": 127.052334,
          "link": "https://new.land.naver.com/houses/2608756507"
        },
        {
          "id": "2608770948",
          "name": "아크로힐스논현",
          "complex": "부동산뱅크",
          "type": "아파트",
          "trade": "매매",
          "price": "31억",
          "deposit": 0,
          "area1": "109",
          "area2": "84.07",
          "floor": "17/26",
          "direction": "남향",
          "desc": "AT 주인직접 33 내부컨디션깔끔 로얄층 입주협의",
          "lat": 37.509588,
          "lng": 127.038202,
          "link": "https://new.land.naver.com/houses/2608770948"
        },
        {
          "id": "2608749659",
          "name": "상지리츠빌카일룸3차",
          "complex": "부동산뱅크",
          "type": "아파트",
          "trade": "월세",
          "price": "25억",
          "deposit": 1600,
          "area1": "248",
          "area2": "196.42",
          "floor": "16/20",
          "direction": "남향",
          "desc": "수리세대, 밝고 컨디션 좋은 귀한 매물이에요",
          "lat": 37.525542,
          "lng": 127.053304,
          "link": "https://new.land.naver.com/houses/2608749659"
        },
        {
          "id": "2608747225",
          "name": "논현동양파라곤",
          "complex": "매경부동산",
          "type": "아파트",
          "trade": "매매",
          "price": "55억",
          "deposit": 0,
          "area1": "218",
          "area2": "180.07",
          "floor": "4/16",
          "direction": "남동향",
          "desc": "66p, 아늑한 정원뷰",
          "lat": 37.514602,
          "lng": 127.038647,
          "link": "https://new.land.naver.com/houses/2608747225"
        },
        {
          "id": "2608707371",
          "name": "삼성힐스테이트1단지",
          "complex": "부동산뱅크",
          "type": "아파트",
          "trade": "전세",
          "price": "13억 5,000",
          "deposit": 0,
          "area1": "109",
          "area2": "84.23",
          "floor": "7/23",
          "direction": "남향",
          "desc": "33 주인의뢰 트이고채광좋은 남향로얄층 확장에어컨배관옵션",
          "lat": 37.517054,
          "lng": 127.048864,
          "link": "https://new.land.naver.com/houses/2608707371"
        },
        {
          "id": "2608720634",
          "name": "씨티2차",
          "complex": "부동산뱅크",
          "type": "아파트",
          "trade": "전세",
          "price": "9억",
          "deposit": 0,
          "area1": "112",
          "area2": "97.74",
          "floor": "1/11",
          "direction": "남향",
          "desc": "내부올수리 컨디션 좋은세대, 오솔길산책로와 한강으로 산책하기좋음",
          "lat": 37.528374,
          "lng": 127.049195,
          "link": "https://new.land.naver.com/houses/2608720634"
        },
        {
          "id": "2608668431",
          "name": "더리버스청담(주상복합)",
          "complex": "매경부동산",
          "type": "아파트",
          "trade": "월세",
          "price": "1억",
          "deposit": 300,
          "area1": "49",
          "area2": "36.71",
          "floor": "3/17",
          "direction": "북동향",
          "desc": "소유주직접 한강변 화이트톤 최고급 인테리어",
          "lat": 37.524414,
          "lng": 127.055415,
          "link": "https://new.land.naver.com/houses/2608668431"
        },
        {
          "id": "2608721245",
          "name": "씨티2차",
          "complex": "부동산뱅크",
          "type": "아파트",
          "trade": "매매",
          "price": "35억",
          "deposit": 0,
          "area1": "112",
          "area2": "97.74",
          "floor": "1/11",
          "direction": "남향",
          "desc": "주인직접, 볕잘드는 남향. 내부수리세대",
          "lat": 37.528374,
          "lng": 127.049195,
          "link": "https://new.land.naver.com/houses/2608721245"
        },
        {
          "id": "2608659377",
          "name": "씨티2차",
          "complex": "매경부동산",
          "type": "아파트",
          "trade": "매매",
          "price": "65억",
          "deposit": 0,
          "area1": "214",
          "area2": "163.35",
          "floor": "11/11",
          "direction": "남향",
          "desc": "소유주직접의뢰 한강변아파트 복층 펜트세대 한강조망 수리세대 방4욕2",
          "lat": 37.528374,
          "lng": 127.049195,
          "link": "https://new.land.naver.com/houses/2608659377"
        },
        {
          "id": "2608661106",
          "name": "목화",
          "complex": "매경부동산",
          "type": "아파트",
          "trade": "월세",
          "price": "8억 5,000",
          "deposit": 250,
          "area1": "149",
          "area2": "133.97",
          "floor": "8/12",
          "direction": "남향",
          "desc": "소유주직접 내부특올수리 한강조망 환한남향 한강변 오솔길",
          "lat": 37.528183,
          "lng": 127.050012,
          "link": "https://new.land.naver.com/houses/2608661106"
        },
        {
          "id": "2608694213",
          "name": "원에디션강남(도시형)",
          "complex": "부동산뱅크",
          "type": "아파트",
          "trade": "전세",
          "price": "8억 5,000",
          "deposit": 0,
          "area1": "71",
          "area2": "46.32",
          "floor": "7/13",
          "direction": "남향",
          "desc": "언주,선정릉역 더블역세권",
          "lat": 37.507817,
          "lng": 127.037697,
          "link": "https://new.land.naver.com/houses/2608694213"
        },
        {
          "id": "2608659879",
          "name": "롯데캐슬프레미어",
          "complex": "매경부동산",
          "type": "아파트",
          "trade": "매매",
          "price": "53억",
          "deposit": 0,
          "area1": "168",
          "area2": "144.11",
          "floor": "17/20",
          "direction": "남향",
          "desc": "50P로열동.로열층.트인뷰.올확장.올수리",
          "lat": 37.516341,
          "lng": 127.045321,
          "link": "https://new.land.naver.com/houses/2608659879"
        },
        {
          "id": "2608699544",
          "name": "청담휴먼스타빌",
          "complex": "부동산뱅크",
          "type": "아파트",
          "trade": "매매",
          "price": "8억 3,000",
          "deposit": 0,
          "area1": "48",
          "area2": "35.9",
          "floor": "5/27",
          "direction": "북향",
          "desc": "매매도산대로 454, 청담동 비지니스와 교통의 중심",
          "lat": 37.523718,
          "lng": 127.046075,
          "link": "https://new.land.naver.com/houses/2608699544"
        },
        {
          "id": "2608660556",
          "name": "목화",
          "complex": "매경부동산",
          "type": "아파트",
          "trade": "매매",
          "price": "38억",
          "deposit": 0,
          "area1": "149",
          "area2": "133.97",
          "floor": "8/12",
          "direction": "남향",
          "desc": "소유주직접 내부특올수리 영구적인 한강조망 한강변 투자가치多 3종",
          "lat": 37.528183,
          "lng": 127.050012,
          "link": "https://new.land.naver.com/houses/2608660556"
        },
        {
          "id": "2608698465",
          "name": "청담범신칼릭스빌",
          "complex": "매경부동산",
          "type": "아파트",
          "trade": "월세",
          "price": "2억",
          "deposit": 400,
          "area1": "104",
          "area2": "84.78",
          "floor": "4/7",
          "direction": "남향",
          "desc": "빠른입주가능, 내부상태우수, 편의시설이 잘 갖춰진세대",
          "lat": 37.525336,
          "lng": 127.050844,
          "link": "https://new.land.naver.com/houses/2608698465"
        },
        {
          "id": "2608717434",
          "name": "청담범신칼릭스빌2차",
          "complex": "부동산뱅크",
          "type": "아파트",
          "trade": "월세",
          "price": "10억",
          "deposit": 150,
          "area1": "121",
          "area2": "102.69",
          "floor": "6/7",
          "direction": "남동향",
          "desc": "소유주직접, 내부수리 세대, 전세,월세가능.",
          "lat": 37.526683,
          "lng": 127.051751,
          "link": "https://new.land.naver.com/houses/2608717434"
        },
        {
          "id": "2608671369",
          "name": "씨티3차",
          "complex": "매경부동산",
          "type": "아파트",
          "trade": "월세",
          "price": "11억",
          "deposit": 300,
          "area1": "166",
          "area2": "149.77",
          "floor": "2/13",
          "direction": "남향",
          "desc": "소유주직접 오솔길앞 한강변아파트 방4화2 넓은평수",
          "lat": 37.528242,
          "lng": 127.049604,
          "link": "https://new.land.naver.com/houses/2608671369"
        },
        {
          "id": "2608719325",
          "name": "청담대우멤버스카운티11차",
          "complex": "부동산뱅크",
          "type": "아파트",
          "trade": "매매",
          "price": "48억",
          "deposit": 0,
          "area1": "183",
          "area2": "164.99",
          "floor": "1/6",
          "direction": "남향",
          "desc": "청담동 아름다운 단독정원뷰세대, 넓은 거실과 넓은 룸 구조로 쾌적한집",
          "lat": 37.526128,
          "lng": 127.050016,
          "link": "https://new.land.naver.com/houses/2608719325"
        },
        {
          "id": "2608659931",
          "name": "씨티2차",
          "complex": "매경부동산",
          "type": "아파트",
          "trade": "전세",
          "price": "30억",
          "deposit": 0,
          "area1": "214",
          "area2": "163.35",
          "floor": "11/11",
          "direction": "남향",
          "desc": "소유주직접의뢰 한강변아파트 복층 펜트세대 한강조망 수리세대 방4욕2",
          "lat": 37.528374,
          "lng": 127.049195,
          "link": "https://new.land.naver.com/houses/2608659931"
        },
        {
          "id": "2608672428",
          "name": "청담디에브스",
          "complex": "매경부동산",
          "type": "아파트",
          "trade": "월세",
          "price": "1억",
          "deposit": 350,
          "area1": "112",
          "area2": "67.88",
          "floor": "4/8",
          "direction": "남향",
          "desc": "소유주직접의뢰 올리모델링 내부컨디션 최상 투룸 숲세권",
          "lat": 37.522915,
          "lng": 127.049047,
          "link": "https://new.land.naver.com/houses/2608672428"
        },
        {
          "id": "2608717749",
          "name": "상지리츠빌6차",
          "complex": "부동산뱅크",
          "type": "아파트",
          "trade": "월세",
          "price": "12억",
          "deposit": 700,
          "area1": "189",
          "area2": "168.67",
          "floor": "4/7",
          "direction": "남향",
          "desc": "청담동 한강변에 위치한 상지6차 내부올리모델링세대입니다.",
          "lat": 37.527787,
          "lng": 127.050074,
          "link": "https://new.land.naver.com/houses/2608717749"
        },
        {
          "id": "2608684552",
          "name": "펜트힐루논현(도시형)",
          "complex": "부동산뱅크",
          "type": "아파트",
          "trade": "월세",
          "price": "8,000",
          "deposit": 360,
          "area1": "63",
          "area2": "43.39",
          "floor": "14/17",
          "direction": "동향",
          "desc": "신축, 분리형, 자주식주차",
          "lat": 37.513907,
          "lng": 127.034975,
          "link": "https://new.land.naver.com/houses/2608684552"
        },
        {
          "id": "2608662014",
          "name": "상지리츠빌6차",
          "complex": "매경부동산",
          "type": "아파트",
          "trade": "매매",
          "price": "35억",
          "deposit": 0,
          "area1": "169",
          "area2": "150.85",
          "floor": "2/7",
          "direction": "남향",
          "desc": "소유주직접의뢰 올수리 내부컨디션 깔끔 채광좋은 남향 정원뷰",
          "lat": 37.527787,
          "lng": 127.050074,
          "link": "https://new.land.naver.com/houses/2608662014"
        },
        {
          "id": "2608699963",
          "name": "청담휴먼스타빌",
          "complex": "부동산뱅크",
          "type": "아파트",
          "trade": "매매",
          "price": "8억 7,000",
          "deposit": 0,
          "area1": "48",
          "area2": "35.9",
          "floor": "22/27",
          "direction": "남향",
          "desc": "청담동 도산대로 탁트인 남향뷰 전망 올수리 토지거래허가구역 제외단지",
          "lat": 37.523718,
          "lng": 127.046075,
          "link": "https://new.land.naver.com/houses/2608699963"
        },
        {
          "id": "2608657316",
          "name": "삼성리치빌(주상복합)",
          "complex": "매경부동산",
          "type": "아파트",
          "trade": "매매",
          "price": "18억",
          "deposit": 0,
          "area1": "100",
          "area2": "84.98",
          "floor": "4/7",
          "direction": "동향",
          "desc": "30 주인직접의뢰 청담역초역세권 내부아주깔끔 입주협의",
          "lat": 37.518469,
          "lng": 127.051086,
          "link": "https://new.land.naver.com/houses/2608657316"
        },
        {
          "id": "2608625633",
          "name": "펜트힐루논현(도시형)",
          "complex": "매경부동산",
          "type": "아파트",
          "trade": "월세",
          "price": "5,000",
          "deposit": 400,
          "area1": "63",
          "area2": "43.39",
          "floor": "13/17",
          "direction": "서향",
          "desc": "하이엔드 커뮤니티 고층 로얄뷰 펜트힐루",
          "lat": 37.513907,
          "lng": 127.034975,
          "link": "https://new.land.naver.com/houses/2608625633"
        },
        {
          "id": "2608609807",
          "name": "펜트힐루논현(도시형)",
          "complex": "매경부동산",
          "type": "아파트",
          "trade": "월세",
          "price": "5,000",
          "deposit": 350,
          "area1": "63",
          "area2": "43.39",
          "floor": "10/17",
          "direction": "동향",
          "desc": "펜트힐루 고층 로얄뷰 황금 전세 다양한 커뮤니티",
          "lat": 37.513907,
          "lng": 127.034975,
          "link": "https://new.land.naver.com/houses/2608609807"
        },
        {
          "id": "2608621401",
          "name": "펜트힐루논현(도시형)",
          "complex": "매경부동산",
          "type": "아파트",
          "trade": "월세",
          "price": "5,000",
          "deposit": 330,
          "area1": "63",
          "area2": "43.39",
          "floor": "8/17",
          "direction": "동향",
          "desc": "펜트힐루논현 하이엔드 럭셔리한 인테리어 커뮤니티",
          "lat": 37.513907,
          "lng": 127.034975,
          "link": "https://new.land.naver.com/houses/2608621401"
        },
        {
          "id": "2608656777",
          "name": "라테라스청담(도시형)",
          "complex": "매경부동산",
          "type": "아파트",
          "trade": "매매",
          "price": "3억 4,000",
          "deposit": 0,
          "area1": "27",
          "area2": "18.62",
          "floor": "9/9",
          "direction": "동향",
          "desc": "주인의뢰 탑층 실거주 갭투자 가능 신축급 내부",
          "lat": 37.519811,
          "lng": 127.050472,
          "link": "https://new.land.naver.com/houses/2608656777"
        },
        {
          "id": "2608621432",
          "name": "펜트힐루논현(도시형)",
          "complex": "매경부동산",
          "type": "아파트",
          "trade": "월세",
          "price": "5,000",
          "deposit": 350,
          "area1": "63",
          "area2": "43.39",
          "floor": "5/17",
          "direction": "서향",
          "desc": "펜트힐루 하이엔드 커뮤니티 시설 주인직접",
          "lat": 37.513907,
          "lng": 127.034975,
          "link": "https://new.land.naver.com/houses/2608621432"
        },
        {
          "id": "2608630279",
          "name": "한솔",
          "complex": "매경부동산",
          "type": "아파트",
          "trade": "월세",
          "price": "4억",
          "deposit": 280,
          "area1": "147",
          "area2": "109.51",
          "floor": "11/19",
          "direction": "남향",
          "desc": "공원전망 남향 로얄층 거실확장 언북초 언주중 5분입지",
          "lat": 37.51704,
          "lng": 127.045662,
          "link": "https://new.land.naver.com/houses/2608630279"
        },
        {
          "id": "2608612153",
          "name": "논현동양파라곤",
          "complex": "매경부동산",
          "type": "아파트",
          "trade": "전세",
          "price": "24억",
          "deposit": 0,
          "area1": "192",
          "area2": "157.41",
          "floor": "3/16",
          "direction": "남향",
          "desc": "올수리 58p, 인테리어 깔끔, 필로티 있는 3층으로 층간 소음 무",
          "lat": 37.514991,
          "lng": 127.037725,
          "link": "https://new.land.naver.com/houses/2608612153"
        },
        {
          "id": "2608608652",
          "name": "펜트힐루논현(도시형)",
          "complex": "매경부동산",
          "type": "아파트",
          "trade": "매매",
          "price": "9억",
          "deposit": 0,
          "area1": "61",
          "area2": "42.25",
          "floor": "6/17",
          "direction": "서향",
          "desc": "급매 펜트힐루 서향 분리형 하이엔드 커뮤니티",
          "lat": 37.513907,
          "lng": 127.034975,
          "link": "https://new.land.naver.com/houses/2608608652"
        },
        {
          "id": "2608610884",
          "name": "펜트힐루논현(도시형)",
          "complex": "매경부동산",
          "type": "아파트",
          "trade": "월세",
          "price": "1억",
          "deposit": 300,
          "area1": "63",
          "area2": "43.39",
          "floor": "10/17",
          "direction": "동향",
          "desc": "펜트힐루 하이엔드 커뮤니티 자주식 주차",
          "lat": 37.513907,
          "lng": 127.034975,
          "link": "https://new.land.naver.com/houses/2608610884"
        },
        {
          "id": "2608651563",
          "name": "삼성힐스테이트1단지",
          "complex": "매경부동산",
          "type": "아파트",
          "trade": "전세",
          "price": "17억",
          "deposit": 0,
          "area1": "143",
          "area2": "114.46",
          "floor": "12/21",
          "direction": "남향",
          "desc": "43P 로얄동 로얄층 확장되어 상태 좋은 집",
          "lat": 37.516103,
          "lng": 127.048208,
          "link": "https://new.land.naver.com/houses/2608651563"
        },
        {
          "id": "2608615045",
          "name": "펜트힐루논현(도시형)",
          "complex": "매경부동산",
          "type": "아파트",
          "trade": "전세",
          "price": "6억 8,000",
          "deposit": 0,
          "area1": "63",
          "area2": "43.39",
          "floor": "9/17",
          "direction": "동향",
          "desc": "펜트힐루논현 신축급 컨디션 럭셔리 인테리어",
          "lat": 37.513907,
          "lng": 127.034975,
          "link": "https://new.land.naver.com/houses/2608615045"
        },
        {
          "id": "2608655861",
          "name": "삼성센트럴아이파크",
          "complex": "매경부동산",
          "type": "아파트",
          "trade": "매매",
          "price": "35억",
          "deposit": 0,
          "area1": "85",
          "area2": "59.96",
          "floor": "14/31",
          "direction": "남동향",
          "desc": "25,귀한물건,로얄동,로얄층,전망좋은집,막힘없는뷰",
          "lat": 37.515172,
          "lng": 127.051461,
          "link": "https://new.land.naver.com/houses/2608655861"
        },
        {
          "id": "2608617725",
          "name": "펜트힐루논현(도시형)",
          "complex": "매경부동산",
          "type": "아파트",
          "trade": "월세",
          "price": "5,000",
          "deposit": 350,
          "area1": "63",
          "area2": "43.39",
          "floor": "4/17",
          "direction": "동향",
          "desc": "펜트힐루논현 자주식주차 하이엔드 커뮤니티",
          "lat": 37.513907,
          "lng": 127.034975,
          "link": "https://new.land.naver.com/houses/2608617725"
        },
        {
          "id": "2608611072",
          "name": "펜트힐루논현(도시형)",
          "complex": "매경부동산",
          "type": "아파트",
          "trade": "전세",
          "price": "6억 8,000",
          "deposit": 0,
          "area1": "63",
          "area2": "43.39",
          "floor": "5/17",
          "direction": "동향",
          "desc": "신축 주차편리 뷰좋은 럭셔리 인테리어",
          "lat": 37.513907,
          "lng": 127.034975,
          "link": "https://new.land.naver.com/houses/2608611072"
        },
        {
          "id": "2608625587",
          "name": "청담휴먼스타빌",
          "complex": "우리집부동산",
          "type": "아파트",
          "trade": "월세",
          "price": "2,000",
          "deposit": 230,
          "area1": "48",
          "area2": "35.9",
          "floor": "16/27",
          "direction": "북향",
          "desc": "",
          "lat": 37.523718,
          "lng": 127.046075,
          "link": "https://new.land.naver.com/houses/2608625587"
        },
        {
          "id": "2608625091",
          "name": "펜트힐루논현(도시형)",
          "complex": "매경부동산",
          "type": "아파트",
          "trade": "전세",
          "price": "6억 7,000",
          "deposit": 0,
          "area1": "63",
          "area2": "43.39",
          "floor": "14/17",
          "direction": "동향",
          "desc": "펜트힐루 고층 로얄뷰 깔끔한 인테리어",
          "lat": 37.513907,
          "lng": 127.034975,
          "link": "https://new.land.naver.com/houses/2608625091"
        },
        {
          "id": "2608643516",
          "name": "논현동양파라곤",
          "complex": "매경부동산",
          "type": "아파트",
          "trade": "전세",
          "price": "25억",
          "deposit": 0,
          "area1": "218",
          "area2": "180.07",
          "floor": "4/16",
          "direction": "남향",
          "desc": "급전세 동양파라곤아파트 66P",
          "lat": 37.514602,
          "lng": 127.038647,
          "link": "https://new.land.naver.com/houses/2608643516"
        },
        {
          "id": "2608621925",
          "name": "청담래미안로이뷰",
          "complex": "부동산뱅크",
          "type": "아파트",
          "trade": "전세",
          "price": "18억 5,000",
          "deposit": 0,
          "area1": "136",
          "area2": "110.2",
          "floor": "14/16",
          "direction": "동향",
          "desc": "한강뷰굿 고층 입주협의",
          "lat": 37.52452,
          "lng": 127.056236,
          "link": "https://new.land.naver.com/houses/2608621925"
        },
        {
          "id": "2608656089",
          "name": "청담e-편한세상3차",
          "complex": "매경부동산",
          "type": "아파트",
          "trade": "매매",
          "price": "22억 9,000",
          "deposit": 0,
          "area1": "89",
          "area2": "71.63",
          "floor": "9/9",
          "direction": "남향",
          "desc": "청담동 따뜻한남뻥뷰 내부상태상급 입주협의",
          "lat": 37.518632,
          "lng": 127.045586,
          "link": "https://new.land.naver.com/houses/2608656089"
        }
      ]
    },
    "강동구": {
      "lat": 37.5301,
      "lng": 127.1238,
      "total": 200,
      "count": 200,
      "sale": 125,
      "lease": 48,
      "rent": 27,
      "articles": [
        {
          "id": "2608209282",
          "name": "더샵강동센트럴시티",
          "complex": "부동산뱅크",
          "type": "아파트",
          "trade": "매매",
          "price": "15억 5,000",
          "deposit": 0,
          "area1": "83",
          "area2": "59.99",
          "floor": "22/37",
          "direction": "남향",
          "desc": "천호역세권 신축 아파트 뷰좋은 집",
          "lat": 37.538629,
          "lng": 127.129037,
          "link": "https://new.land.naver.com/houses/2608209282"
        },